{
"type": "FeatureCollection",
"name": "311",
"crs": { "type": "name", "properties": { "name": "urn:ogc:def:crs:OGC:1.3:CRS84" } },
"features": [
{ "type": "Feature", "properties": { "name": "青森 第1-001号 津波石碑（海嘯記念碑）", "prefecture": "青森", "code": "青森第1-001号", "category": 1, "Id": 1 }, "geometry": { "type": "Point", "coordinates": [ 141.6512478, 40.4684563, 0.0 ] } },
{ "type": "Feature", "properties": { "name": "青森 第1-002 五戸川震災復興メモリアル看板", "prefecture": "青森", "code": "青森第1-002号", "category": 1, "Id": 2 }, "geometry": { "type": "Point", "coordinates": [ 141.4611892, 40.5869113, 0.0 ] } },
{ "type": "Feature", "properties": { "name": "青森 第1-003号 奥入瀬川・明神川震災復興メモリアル看板（左岸側）", "prefecture": "青森", "code": "青森第1-003号", "category": 1, "Id": 3 }, "geometry": { "type": "Point", "coordinates": [ 141.4601261, 40.6066079, 0.0 ] } },
{ "type": "Feature", "properties": { "name": "青森 第1-003号 奥入瀬川・明神川震災復興メモリアル看板（右岸側）", "prefecture": "青森", "code": "青森第1-003号", "category": 1, "Id": 4 }, "geometry": { "type": "Point", "coordinates": [ 141.4585179, 40.5982576, 0.0 ] } },
{ "type": "Feature", "properties": { "name": "青森 第1-004号 「奇跡の鳥居」解説板", "prefecture": "青森", "code": "青森第1-004号", "category": 1, "Id": 5 }, "geometry": { "type": "Point", "coordinates": [ 141.632076399999988, 40.4951647, 0.0 ] } },
{ "type": "Feature", "properties": { "name": "青森 第1₋005_津波記憶石第31号", "prefecture": "青森", "code": "青森第1₋005号", "category": 1, "Id": 6 }, "geometry": { "type": "Point", "coordinates": [ 141.4616771, 40.5842581, 0.0 ] } },
{ "type": "Feature", "properties": { "name": "岩手 第1-001号 津波到達点", "prefecture": "岩手", "code": "岩手第1-001号", "category": 1, "Id": 7 }, "geometry": { "type": "Point", "coordinates": [ 141.9779012, 39.7342495, 0.0 ] } },
{ "type": "Feature", "properties": { "name": "岩手 第1-002号 津波記念碑", "prefecture": "岩手", "code": "岩手第1-002号", "category": 1, "Id": 8 }, "geometry": { "type": "Point", "coordinates": [ 141.9656688, 39.7360104, 0.0 ] } },
{ "type": "Feature", "properties": { "name": "岩手 第1-003号 震災伝承看板「救援ルートを確保した道路啓開「くしの歯作戦」」", "prefecture": "岩手", "code": "岩手第1-003号", "category": 1, "Id": 9 }, "geometry": { "type": "Point", "coordinates": [ 141.957056099999988, 39.6419659, 0.0 ] } },
{ "type": "Feature", "properties": { "name": "岩手 第1-004号 津波石碑 （大海嘯記念）", "prefecture": "岩手", "code": "岩手第1-004号", "category": 1, "Id": 10 }, "geometry": { "type": "Point", "coordinates": [ 141.9784252, 39.6527187, 0.0 ] } },
{ "type": "Feature", "properties": { "name": "岩手 第1-005号 津波石碑 （津波記念碑）", "prefecture": "岩手", "code": "岩手第1-005号", "category": 1, "Id": 11 }, "geometry": { "type": "Point", "coordinates": [ 141.765723400000013, 39.036539, 0.0 ] } },
{ "type": "Feature", "properties": { "name": "岩手 第1-006号 津波石碑 （津波記念碑）", "prefecture": "岩手", "code": "岩手第1-006号", "category": 1, "Id": 12 }, "geometry": { "type": "Point", "coordinates": [ 141.7437184, 39.0365575, 0.0 ] } },
{ "type": "Feature", "properties": { "name": "岩手 第1-007号 津波石碑 （津波記念碑）", "prefecture": "岩手", "code": "岩手第1-007号", "category": 1, "Id": 13 }, "geometry": { "type": "Point", "coordinates": [ 141.7369516, 39.066234, 0.0 ] } },
{ "type": "Feature", "properties": { "name": "岩手 第1-008号 津波石碑 （津波犠牲者の霊に捧げる）", "prefecture": "岩手", "code": "岩手第1-008号", "category": 1, "Id": 14 }, "geometry": { "type": "Point", "coordinates": [ 141.713076199999989, 39.0704977, 0.0 ] } },
{ "type": "Feature", "properties": { "name": "岩手 第1-009号 津波石碑 （昭和35年5月24日 チリ地震津波到達地点）", "prefecture": "岩手", "code": "岩手第1-009号", "category": 1, "Id": 15 }, "geometry": { "type": "Point", "coordinates": [ 141.7164301, 39.0711861, 0.0 ] } },
{ "type": "Feature", "properties": { "name": "岩手 第1-010号 津波石碑 （昭和35年5月24日 チリ地震津波襲来地点）", "prefecture": "岩手", "code": "岩手第1-010号", "category": 1, "Id": 16 }, "geometry": { "type": "Point", "coordinates": [ 141.7195843, 39.0602658, 0.0 ] } },
{ "type": "Feature", "properties": { "name": "岩手 第1-011号 津波石碑 （昭和35年5月24日 チリ地震津波到達地点）", "prefecture": "岩手", "code": "岩手第1-011号", "category": 1, "Id": 17 }, "geometry": { "type": "Point", "coordinates": [ 141.7204462, 39.0575285, 0.0 ] } },
{ "type": "Feature", "properties": { "name": "岩手 第1-012号\n津波石碑 （海嘯溺死之霊）", "prefecture": "岩手", "code": "岩手第1-012号", "category": 1, "Id": 18 }, "geometry": { "type": "Point", "coordinates": [ 141.712693800000011, 39.0170034, 0.0 ] } },
{ "type": "Feature", "properties": { "name": "岩手 第1-013号 津波石碑 （津浪横死者供養碑）", "prefecture": "岩手", "code": "岩手第1-013号", "category": 1, "Id": 19 }, "geometry": { "type": "Point", "coordinates": [ 141.712983400000013, 39.0170324, 0.0 ] } },
{ "type": "Feature", "properties": { "name": "岩手 第1-014号 津波石碑 （津浪横死者慰霊塔）", "prefecture": "岩手", "code": "岩手第1-014号", "category": 1, "Id": 20 }, "geometry": { "type": "Point", "coordinates": [ 141.7294109, 38.9933999, 0.0 ] } },
{ "type": "Feature", "properties": { "name": "岩手 第1-015号 津波石碑 （津波記念碑）", "prefecture": "岩手", "code": "岩手第1-015号", "category": 1, "Id": 21 }, "geometry": { "type": "Point", "coordinates": [ 141.858641299999988, 39.1044047, 0.0 ] } },
{ "type": "Feature", "properties": { "name": "岩手 第1-016号 津波石碑 （津波記念碑）", "prefecture": "岩手", "code": "岩手第1-016号", "category": 1, "Id": 22 }, "geometry": { "type": "Point", "coordinates": [ 141.8102565, 39.0879641, 0.0 ] } },
{ "type": "Feature", "properties": { "name": "岩手 第1-017号 津波石碑 （昭和八年津浪記念碑）", "prefecture": "岩手", "code": "岩手第1-017号", "category": 1, "Id": 23 }, "geometry": { "type": "Point", "coordinates": [ 141.823360799999989, 40.2258212, 0.0 ] } },
{ "type": "Feature", "properties": { "name": "岩手 第1-018号 津波石碑 （昭和八年津浪記念碑）", "prefecture": "岩手", "code": "岩手第1-018号", "category": 1, "Id": 24 }, "geometry": { "type": "Point", "coordinates": [ 141.8160293, 40.2543251, 0.0 ] } },
{ "type": "Feature", "properties": { "name": "岩手 第1-019号 津波石碑 （海嘯記念碑）", "prefecture": "岩手", "code": "岩手第1-019号", "category": 1, "Id": 25 }, "geometry": { "type": "Point", "coordinates": [ 141.790786700000012, 40.2114849, 0.0 ] } },
{ "type": "Feature", "properties": { "name": "岩手 第1-020号 津波石碑 （津波記念碑）", "prefecture": "岩手", "code": "岩手第1-020号", "category": 1, "Id": 26 }, "geometry": { "type": "Point", "coordinates": [ 141.7911875, 40.203168, 0.0 ] } },
{ "type": "Feature", "properties": { "name": "岩手 第1-021号 津波石碑 （防潮林記念碑）", "prefecture": "岩手", "code": "岩手第1-021号", "category": 1, "Id": 27 }, "geometry": { "type": "Point", "coordinates": [ 141.7912862, 40.2031706, 0.0 ] } },
{ "type": "Feature", "properties": { "name": "岩手 第1-022号 津波石碑 （昭和八年津浪記念碑）", "prefecture": "岩手", "code": "岩手第1-022号", "category": 1, "Id": 28 }, "geometry": { "type": "Point", "coordinates": [ 141.795683200000013, 40.1886092, 0.0 ] } },
{ "type": "Feature", "properties": { "name": "岩手 第1-023号 津波石碑 （昭和八年津浪記念碑）", "prefecture": "岩手", "code": "岩手第1-023号", "category": 1, "Id": 29 }, "geometry": { "type": "Point", "coordinates": [ 141.8520799, 40.1673211, 0.0 ] } },
{ "type": "Feature", "properties": { "name": "岩手 第1-024号 津波石碑 （昭和八年津浪記念碑）", "prefecture": "岩手", "code": "岩手第1-024号", "category": 1, "Id": 30 }, "geometry": { "type": "Point", "coordinates": [ 141.8467962, 40.1344693, 0.0 ] } },
{ "type": "Feature", "properties": { "name": "岩手 第1-025号 奇跡の一本松・陸前高田ユースホステル", "prefecture": "岩手", "code": "岩手第1-025号", "category": 1, "Id": 31 }, "geometry": { "type": "Point", "coordinates": [ 141.6252759, 39.003522, 0.0 ] } },
{ "type": "Feature", "properties": { "name": "岩手 第1-027号 下宿定住促進住宅", "prefecture": "岩手", "code": "岩手第1-027号", "category": 1, "Id": 32 }, "geometry": { "type": "Point", "coordinates": [ 141.644404400000013, 39.0096723, 0.0 ] } },
{ "type": "Feature", "properties": { "name": "岩手 第1-029号 津波石碑", "prefecture": "岩手", "code": "岩手第1-029号", "category": 1, "Id": 33 }, "geometry": { "type": "Point", "coordinates": [ 141.705864, 38.9823857, 0.0 ] } },
{ "type": "Feature", "properties": { "name": "岩手 第1-030号 津波石碑", "prefecture": "岩手", "code": "岩手第1-030号", "category": 1, "Id": 34 }, "geometry": { "type": "Point", "coordinates": [ 141.6949299, 38.9710319, 0.0 ] } },
{ "type": "Feature", "properties": { "name": "岩手 第1-031号 津波石碑 （津浪記念碑）\n", "prefecture": "岩手", "code": "岩手第1-031号", "category": 1, "Id": 35 }, "geometry": { "type": "Point", "coordinates": [ 141.69595910000001, 38.964659, 0.0 ] } },
{ "type": "Feature", "properties": { "name": "岩手 第1-032号 津波石碑", "prefecture": "岩手", "code": "岩手第1-032号", "category": 1, "Id": 36 }, "geometry": { "type": "Point", "coordinates": [ 141.705322700000011, 38.9464241, 0.0 ] } },
{ "type": "Feature", "properties": { "name": "岩手 第1-033号 津波石碑", "prefecture": "岩手", "code": "岩手第1-033号", "category": 1, "Id": 37 }, "geometry": { "type": "Point", "coordinates": [ 141.6933808, 38.9595761, 0.0 ] } },
{ "type": "Feature", "properties": { "name": "岩手 第1-034号 津波石碑 （津浪記念碑）", "prefecture": "岩手", "code": "岩手第1-034号", "category": 1, "Id": 38 }, "geometry": { "type": "Point", "coordinates": [ 141.6149954, 38.9945481, 0.0 ] } },
{ "type": "Feature", "properties": { "name": "岩手 第1-035号 津波石碑 （津波記念碑）", "prefecture": "岩手", "code": "岩手第1-035号", "category": 1, "Id": 39 }, "geometry": { "type": "Point", "coordinates": [ 141.9062078, 39.3432926, 0.0 ] } },
{ "type": "Feature", "properties": { "name": "岩手 第1-036号 津波石碑 （津波記念碑）", "prefecture": "岩手", "code": "岩手第1-036号", "category": 1, "Id": 40 }, "geometry": { "type": "Point", "coordinates": [ 141.8926415, 39.3379064, 0.0 ] } },
{ "type": "Feature", "properties": { "name": "岩手 第1-037号 津波石碑 （津波記念碑）", "prefecture": "岩手", "code": "岩手第1-037号", "category": 1, "Id": 41 }, "geometry": { "type": "Point", "coordinates": [ 141.912756699999989, 39.3231515, 0.0 ] } },
{ "type": "Feature", "properties": { "name": "岩手 第1-038号 津波石碑 （津波記念碑）", "prefecture": "岩手", "code": "岩手第1-038号", "category": 1, "Id": 42 }, "geometry": { "type": "Point", "coordinates": [ 141.8846341, 39.3124189, 0.0 ] } },
{ "type": "Feature", "properties": { "name": "岩手 第1-039号 津波石碑 （海嘯記念碑）", "prefecture": "岩手", "code": "岩手第1-039号", "category": 1, "Id": 43 }, "geometry": { "type": "Point", "coordinates": [ 141.8806167, 39.2761656, 0.0 ] } },
{ "type": "Feature", "properties": { "name": "岩手 第1-041号 津波石碑 （大海嘯記念）", "prefecture": "岩手", "code": "岩手第1-041号", "category": 1, "Id": 44 }, "geometry": { "type": "Point", "coordinates": [ 141.9739155, 39.4337558, 0.0 ] } },
{ "type": "Feature", "properties": { "name": "岩手 第1-042号 津波石碑 （三陸大海嘯溺死者慰霊塔）", "prefecture": "岩手", "code": "岩手第1-042号", "category": 1, "Id": 45 }, "geometry": { "type": "Point", "coordinates": [ 141.98114480000001, 39.4302478, 0.0 ] } },
{ "type": "Feature", "properties": { "name": "岩手 第1-043号 津波石碑 （大海嘯記念）", "prefecture": "岩手", "code": "岩手第1-043号", "category": 1, "Id": 46 }, "geometry": { "type": "Point", "coordinates": [ 141.989760499999988, 39.4182247, 0.0 ] } },
{ "type": "Feature", "properties": { "name": "岩手 第1-044号 津波石碑 （三陸大海嘯記念）", "prefecture": "岩手", "code": "岩手第1-044号", "category": 1, "Id": 47 }, "geometry": { "type": "Point", "coordinates": [ 141.969609600000013, 39.8427596, 0.0 ] } },
{ "type": "Feature", "properties": { "name": "岩手 第1-045号 津波石碑 （三陸大海嘯記念）", "prefecture": "岩手", "code": "岩手第1-045号", "category": 1, "Id": 48 }, "geometry": { "type": "Point", "coordinates": [ 141.9785085, 39.8322682, 0.0 ] } },
{ "type": "Feature", "properties": { "name": "岩手 第1-046号 津波石碑 （昭和八年津浪記念碑）", "prefecture": "岩手", "code": "岩手第1-046号", "category": 1, "Id": 49 }, "geometry": { "type": "Point", "coordinates": [ 141.9450091, 39.9116957, 0.0 ] } },
{ "type": "Feature", "properties": { "name": "岩手 第1-047号 津波石碑 （大海嘯記念）", "prefecture": "岩手", "code": "岩手第1-047号", "category": 1, "Id": 50 }, "geometry": { "type": "Point", "coordinates": [ 141.88360990000001, 40.0088718, 0.0 ] } },
{ "type": "Feature", "properties": { "name": "岩手 第1-048号 津波石碑 （三陸大海嘯 溺死者・諸精霊供養搭）", "prefecture": "岩手", "code": "岩手第1-048号", "category": 1, "Id": 51 }, "geometry": { "type": "Point", "coordinates": [ 141.8845115, 40.0110217, 0.0 ] } },
{ "type": "Feature", "properties": { "name": "岩手 第1-049号 津波石碑 （不慮の津浪に不断の注意）", "prefecture": "岩手", "code": "岩手第1-049号", "category": 1, "Id": 52 }, "geometry": { "type": "Point", "coordinates": [ 141.7090959, 40.4208426, 0.0 ] } },
{ "type": "Feature", "properties": { "name": "岩手 第1‐050号 津波石碑（鶴木神社の津波溺死霊供養塔）", "prefecture": "岩手", "code": "岩手第1‐050号", "category": 1, "Id": 53 }, "geometry": { "type": "Point", "coordinates": [ 141.7064556, 38.9458202, 0.0 ] } },
{ "type": "Feature", "properties": { "name": "岩手 第1‐051号 津波石碑（明下の招魂供養塔）", "prefecture": "岩手", "code": "岩手第1‐051号", "category": 1, "Id": 54 }, "geometry": { "type": "Point", "coordinates": [ 141.7017932, 38.960004, 0.0 ] } },
{ "type": "Feature", "properties": { "name": "岩手 第1‐052号 津波石碑（大陽の津波溺死紀念碑）", "prefecture": "岩手", "code": "岩手第1‐052号", "category": 1, "Id": 55 }, "geometry": { "type": "Point", "coordinates": [ 141.6788319, 38.9730558, 0.0 ] } },
{ "type": "Feature", "properties": { "name": "岩手 第1‐053号 津波石碑（慈恩寺の海嘯招魂碑）", "prefecture": "岩手", "code": "岩手第1‐053号", "category": 1, "Id": 56 }, "geometry": { "type": "Point", "coordinates": [ 141.6918889, 38.9587574, 0.0 ] } },
{ "type": "Feature", "properties": { "name": "岩手 第1‐054号 津波石碑（前花貝の海嘯溺死漂着者碑）", "prefecture": "岩手", "code": "岩手第1‐054号", "category": 1, "Id": 57 }, "geometry": { "type": "Point", "coordinates": [ 141.695619, 38.9686171, 0.0 ] } },
{ "type": "Feature", "properties": { "name": "岩手 第1‐055号 津波石碑（華蔵寺の弔海嘯赤痢亡霊碑）", "prefecture": "岩手", "code": "岩手第1‐055号", "category": 1, "Id": 58 }, "geometry": { "type": "Point", "coordinates": [ 141.706376299999988, 38.9905404, 0.0 ] } },
{ "type": "Feature", "properties": { "name": "岩手 第1‐056号 津波石碑（華蔵寺の海嘯溺死供養塔）", "prefecture": "岩手", "code": "岩手第1‐056号", "category": 1, "Id": 59 }, "geometry": { "type": "Point", "coordinates": [ 141.7064909, 38.99054, 0.0 ] } },
{ "type": "Feature", "properties": { "name": "岩手 第1‐057号 津波石碑（華蔵寺の弔海嘯溺死霊碑）", "prefecture": "岩手", "code": "岩手第1‐057号", "category": 1, "Id": 60 }, "geometry": { "type": "Point", "coordinates": [ 141.7066089, 38.9905379, 0.0 ] } },
{ "type": "Feature", "properties": { "name": "岩手 第1‐058号 津波到達地点記念碑（中沢の津波記念碑）", "prefecture": "岩手", "code": "岩手第1‐058号", "category": 1, "Id": 61 }, "geometry": { "type": "Point", "coordinates": [ 141.693941200000012, 38.9548709, 0.0 ] } },
{ "type": "Feature", "properties": { "name": "岩手 第1‐059号 津波到達地点記念碑（六ヶ浦の津波記念碑）", "prefecture": "岩手", "code": "岩手第1‐059号", "category": 1, "Id": 62 }, "geometry": { "type": "Point", "coordinates": [ 141.7075457, 38.9656495, 0.0 ] } },
{ "type": "Feature", "properties": { "name": "岩手 第1‐060号 津波到達地点記念碑（大陽の津波記念碑）", "prefecture": "岩手", "code": "岩手第1‐060号", "category": 1, "Id": 63 }, "geometry": { "type": "Point", "coordinates": [ 141.6787986, 38.9727041, 0.0 ] } },
{ "type": "Feature", "properties": { "name": "岩手 第1‐061号 桜木町・花輪田地区慰霊碑", "prefecture": "岩手", "code": "岩手第1‐061号", "category": 1, "Id": 64 }, "geometry": { "type": "Point", "coordinates": [ 141.8909303, 39.3544549, 0.0 ] } },
{ "type": "Feature", "properties": { "name": "岩手 第1‐062号 小枕・伸松地区慰霊碑、芳名塔", "prefecture": "岩手", "code": "岩手第1‐062号", "category": 1, "Id": 65 }, "geometry": { "type": "Point", "coordinates": [ 141.909274399999987, 39.3517763, 0.0 ] } },
{ "type": "Feature", "properties": { "name": "岩手 第1‐063号 沢山・大ヶ口地区慰霊碑、津波到達伝承表示（沢山）", "prefecture": "岩手", "code": "岩手第1‐063号", "category": 1, "Id": 66 }, "geometry": { "type": "Point", "coordinates": [ 141.9032113, 39.3669508, 0.0 ] } },
{ "type": "Feature", "properties": { "name": "岩手 第1‐064号 沢山・大ヶ口地区慰霊碑、津波到達伝承表示（源水）", "prefecture": "岩手", "code": "岩手第1‐064号", "category": 1, "Id": 67 }, "geometry": { "type": "Point", "coordinates": [ 141.895688, 39.3658884, 0.0 ] } },
{ "type": "Feature", "properties": { "name": "岩手 第1‐065号 赤浜地区慰霊のモニュメント", "prefecture": "岩手", "code": "岩手第1‐065号", "category": 1, "Id": 68 }, "geometry": { "type": "Point", "coordinates": [ 141.9333959, 39.3544349, 0.0 ] } },
{ "type": "Feature", "properties": { "name": "岩手 第1‐066号 吉里吉里地区慰霊碑、津波到達伝承碑", "prefecture": "岩手", "code": "岩手第1‐066号", "category": 1, "Id": 69 }, "geometry": { "type": "Point", "coordinates": [ 141.9421163, 39.3715145, 0.0 ] } },
{ "type": "Feature", "properties": { "name": "岩手 第1‐067号 波板地区慰霊碑、津波到達伝承碑（5基）", "prefecture": "岩手", "code": "岩手第1‐067号", "category": 1, "Id": 70 }, "geometry": { "type": "Point", "coordinates": [ 141.9352027, 39.3835777, 0.0 ] } },
{ "type": "Feature", "properties": { "name": "岩手 第1‐068号 小槌地区慰霊碑", "prefecture": "岩手", "code": "岩手第1‐068号", "category": 1, "Id": 71 }, "geometry": { "type": "Point", "coordinates": [ 141.8299911, 39.3793404, 0.0 ] } },
{ "type": "Feature", "properties": { "name": "岩手 第1‐069号 金沢地区慰霊碑", "prefecture": "岩手", "code": "岩手第1‐069号", "category": 1, "Id": 72 }, "geometry": { "type": "Point", "coordinates": [ 141.8094372, 39.4408436, 0.0 ] } },
{ "type": "Feature", "properties": { "name": "岩手 第1-070号 津波記憶石第3号", "prefecture": "岩手", "code": "岩手第1-070号", "category": 1, "Id": 73 }, "geometry": { "type": "Point", "coordinates": [ 141.885252799999989, 39.208969, 0.0 ] } },
{ "type": "Feature", "properties": { "name": "岩手 第1-071号 津波記憶石第4号", "prefecture": "岩手", "code": "岩手第1-071号", "category": 1, "Id": 74 }, "geometry": { "type": "Point", "coordinates": [ 141.8883032, 39.2116515, 0.0 ] } },
{ "type": "Feature", "properties": { "name": "岩手 第1-071号 津波記憶石第5号", "prefecture": "岩手", "code": "岩手第1-071号", "category": 1, "Id": 75 }, "geometry": { "type": "Point", "coordinates": [ 141.8876232, 39.2114032, 0.0 ] } },
{ "type": "Feature", "properties": { "name": "岩手 第1-071号 津波記憶石第6号", "prefecture": "岩手", "code": "岩手第1-071号", "category": 1, "Id": 76 }, "geometry": { "type": "Point", "coordinates": [ 141.885562, 39.2094826, 0.0 ] } },
{ "type": "Feature", "properties": { "name": "岩手 第1-071号 津波記憶石第7号", "prefecture": "岩手", "code": "岩手第1-071号", "category": 1, "Id": 77 }, "geometry": { "type": "Point", "coordinates": [ 141.8847949, 39.2091209, 0.0 ] } },
{ "type": "Feature", "properties": { "name": "岩手 第1-071号 津波記憶石第8号", "prefecture": "岩手", "code": "岩手第1-071号", "category": 1, "Id": 78 }, "geometry": { "type": "Point", "coordinates": [ 141.882866400000012, 39.2100615, 0.0 ] } },
{ "type": "Feature", "properties": { "name": "岩手 第1-071号 津波記憶石第9号", "prefecture": "岩手", "code": "岩手第1-071号", "category": 1, "Id": 79 }, "geometry": { "type": "Point", "coordinates": [ 141.881215200000014, 39.2097425, 0.0 ] } },
{ "type": "Feature", "properties": { "name": "岩手 第1-071号 津波記憶石第10号", "prefecture": "岩手", "code": "岩手第1-071号", "category": 1, "Id": 80 }, "geometry": { "type": "Point", "coordinates": [ 141.877169, 39.2107833, 0.0 ] } },
{ "type": "Feature", "properties": { "name": "岩手 第1-071号 津波記憶石第11号", "prefecture": "岩手", "code": "岩手第1-071号", "category": 1, "Id": 81 }, "geometry": { "type": "Point", "coordinates": [ 141.8780682, 39.2090139, 0.0 ] } },
{ "type": "Feature", "properties": { "name": "岩手 第1-071号 津波記憶石第12号", "prefecture": "岩手", "code": "岩手第1-071号", "category": 1, "Id": 82 }, "geometry": { "type": "Point", "coordinates": [ 141.897233699999987, 39.2109523, 0.0 ] } },
{ "type": "Feature", "properties": { "name": "岩手 第1-071号 津波記憶石第13号", "prefecture": "岩手", "code": "岩手第1-071号", "category": 1, "Id": 83 }, "geometry": { "type": "Point", "coordinates": [ 141.8709668, 39.2077556, 0.0 ] } },
{ "type": "Feature", "properties": { "name": "岩手 第1-071号 津波記憶石第14号", "prefecture": "岩手", "code": "岩手第1-071号", "category": 1, "Id": 84 }, "geometry": { "type": "Point", "coordinates": [ 141.8674111, 39.2086476, 0.0 ] } },
{ "type": "Feature", "properties": { "name": "岩手 第1-071号 津波記憶石第15号", "prefecture": "岩手", "code": "岩手第1-071号", "category": 1, "Id": 85 }, "geometry": { "type": "Point", "coordinates": [ 141.866467, 39.2091339, 0.0 ] } },
{ "type": "Feature", "properties": { "name": "岩手 第1-071号 津波記憶石第16号", "prefecture": "岩手", "code": "岩手第1-071号", "category": 1, "Id": 86 }, "geometry": { "type": "Point", "coordinates": [ 141.86564340000001, 39.2069597, 0.0 ] } },
{ "type": "Feature", "properties": { "name": "岩手 第1-071号 津波記憶石第17号", "prefecture": "岩手", "code": "岩手第1-071号", "category": 1, "Id": 87 }, "geometry": { "type": "Point", "coordinates": [ 141.8615038, 39.2016943, 0.0 ] } },
{ "type": "Feature", "properties": { "name": "岩手 第1-071号 津波記憶石第18号", "prefecture": "岩手", "code": "岩手第1-071号", "category": 1, "Id": 88 }, "geometry": { "type": "Point", "coordinates": [ 141.862582300000014, 39.2000594, 0.0 ] } },
{ "type": "Feature", "properties": { "name": "岩手 第1-071号 津波記憶石第19号", "prefecture": "岩手", "code": "岩手第1-071号", "category": 1, "Id": 89 }, "geometry": { "type": "Point", "coordinates": [ 141.851836100000014, 39.2078725, 0.0 ] } },
{ "type": "Feature", "properties": { "name": "岩手 第1-071号 津波記憶石第20号", "prefecture": "岩手", "code": "岩手第1-071号", "category": 1, "Id": 90 }, "geometry": { "type": "Point", "coordinates": [ 141.8620874, 39.1931419, 0.0 ] } },
{ "type": "Feature", "properties": { "name": "岩手 第1-071号 津波記憶石第21号", "prefecture": "岩手", "code": "岩手第1-071号", "category": 1, "Id": 91 }, "geometry": { "type": "Point", "coordinates": [ 141.8619229, 39.1892079, 0.0 ] } },
{ "type": "Feature", "properties": { "name": "岩手 第1-071号 津波記憶石第22号", "prefecture": "岩手", "code": "岩手第1-071号", "category": 1, "Id": 92 }, "geometry": { "type": "Point", "coordinates": [ 141.8601102, 39.1895986, 0.0 ] } },
{ "type": "Feature", "properties": { "name": "岩手 第1-071号 津波記憶石第23号", "prefecture": "岩手", "code": "岩手第1-071号", "category": 1, "Id": 93 }, "geometry": { "type": "Point", "coordinates": [ 141.8575303, 39.191468, 0.0 ] } },
{ "type": "Feature", "properties": { "name": "岩手 第1-071号 津波記憶石第24号", "prefecture": "岩手", "code": "岩手第1-071号", "category": 1, "Id": 94 }, "geometry": { "type": "Point", "coordinates": [ 141.851911699999988, 39.1931233, 0.0 ] } },
{ "type": "Feature", "properties": { "name": "岩手 第1-071号 津波記憶石第25号", "prefecture": "岩手", "code": "岩手第1-071号", "category": 1, "Id": 95 }, "geometry": { "type": "Point", "coordinates": [ 141.89253930000001, 39.1803442, 0.0 ] } },
{ "type": "Feature", "properties": { "name": "岩手 第1₋072号_津波記憶石33号", "prefecture": "岩手", "code": "岩手第1₋072号", "category": 1, "Id": 96 }, "geometry": { "type": "Point", "coordinates": [ 141.7410394, 39.0597745, 0.0 ] } },
{ "type": "Feature", "properties": { "name": "宮城 第1-001号 新浜地区　震災地域モニュメント", "prefecture": "宮城", "code": "宮城第1-001号", "category": 1, "Id": 97 }, "geometry": { "type": "Point", "coordinates": [ 140.983294300000011, 38.245667, 0.0 ] } },
{ "type": "Feature", "properties": { "name": "宮城 第1-002号 名取川河口部左岸　 津波到達情報看板", "prefecture": "宮城", "code": "宮城第1-002号", "category": 1, "Id": 98 }, "geometry": { "type": "Point", "coordinates": [ 140.956826299999989, 38.1812273, 0.0 ] } },
{ "type": "Feature", "properties": { "name": "宮城 第1-003号 南蒲生地区　震災地域モニュメント", "prefecture": "宮城", "code": "宮城第1-003号", "category": 1, "Id": 99 }, "geometry": { "type": "Point", "coordinates": [ 140.989942, 38.2551079, 0.0 ] } },
{ "type": "Feature", "properties": { "name": "宮城 第1-005号 藤塚地区地域モニュメント", "prefecture": "宮城", "code": "宮城第1-005号", "category": 1, "Id": 100 }, "geometry": { "type": "Point", "coordinates": [ 140.957986, 38.1830908, 0.0 ] } },
{ "type": "Feature", "properties": { "name": "宮城 第1-006号 地域の歴史モニュメント 「荒浜の歴史」", "prefecture": "宮城", "code": "宮城第1-006号", "category": 1, "Id": 101 }, "geometry": { "type": "Point", "coordinates": [ 140.9824252, 38.219577, 0.0 ] } },
{ "type": "Feature", "properties": { "name": "宮城 第1-007号 鎮魂のモニュメント 「荒浜記憶の鐘」", "prefecture": "宮城", "code": "宮城第1-007号", "category": 1, "Id": 102 }, "geometry": { "type": "Point", "coordinates": [ 140.9843123, 38.2190736, 0.0 ] } },
{ "type": "Feature", "properties": { "name": "宮城 第1-008号 二日町庁舎跡地　記念石碑", "prefecture": "宮城", "code": "宮城第1-008号", "category": 1, "Id": 103 }, "geometry": { "type": "Point", "coordinates": [ 140.8654874, 38.2698675, 0.0 ] } },
{ "type": "Feature", "properties": { "name": "宮城 第1-009号 仙台海岸堤防復旧説明看板", "prefecture": "宮城", "code": "宮城第1-009号", "category": 1, "Id": 104 }, "geometry": { "type": "Point", "coordinates": [ 140.9871613, 38.2211117, 0.0 ] } },
{ "type": "Feature", "properties": { "name": "宮城 第1-010号 新浜みんなの家", "prefecture": "宮城", "code": "宮城第1-010号", "category": 1, "Id": 105 }, "geometry": { "type": "Point", "coordinates": [ 140.988619, 38.2422241, 0.0 ] } },
{ "type": "Feature", "properties": { "name": "宮城 第1-011号 昭和８年３月３日　大震嘯記念碑（鮎川）", "prefecture": "宮城", "code": "宮城第1-011号", "category": 1, "Id": 106 }, "geometry": { "type": "Point", "coordinates": [ 141.5109716, 38.297609, 0.0 ] } },
{ "type": "Feature", "properties": { "name": "宮城 第1-012号 昭和８年３月３日　大震嘯災記念碑（名振）", "prefecture": "宮城", "code": "宮城第1-012号", "category": 1, "Id": 107 }, "geometry": { "type": "Point", "coordinates": [ 141.499079, 38.5318349, 0.0 ] } },
{ "type": "Feature", "properties": { "name": "宮城 第1-013号 昭和８年３月３日　大震嘯災記念碑（立神）", "prefecture": "宮城", "code": "宮城第1-013号", "category": 1, "Id": 108 }, "geometry": { "type": "Point", "coordinates": [ 141.4627614, 38.5815368, 0.0 ] } },
{ "type": "Feature", "properties": { "name": "宮城 第1-014号 昭和８年３月３日　大震嘯災記念碑（小泊）", "prefecture": "宮城", "code": "宮城第1-014号", "category": 1, "Id": 109 }, "geometry": { "type": "Point", "coordinates": [ 141.5012462, 38.6011101, 0.0 ] } },
{ "type": "Feature", "properties": { "name": "宮城 第1-015 昭和８年３月３日　大震嘯災記念碑（小指）", "prefecture": "宮城", "code": "宮城第1-015号", "category": 1, "Id": 110 }, "geometry": { "type": "Point", "coordinates": [ 141.508267100000012, 38.6049437, 0.0 ] } },
{ "type": "Feature", "properties": { "name": "宮城 第1-016号 昭和８年３月３日　大震嘯災記念碑（大指）", "prefecture": "宮城", "code": "宮城第1-016号", "category": 1, "Id": 111 }, "geometry": { "type": "Point", "coordinates": [ 141.520787500000012, 38.6098172, 0.0 ] } },
{ "type": "Feature", "properties": { "name": "宮城 第1-017号 昭和８年３月３日　大震嘯記念碑（桃浦）", "prefecture": "宮城", "code": "宮城第1-017号", "category": 1, "Id": 112 }, "geometry": { "type": "Point", "coordinates": [ 141.4306033, 38.4004958, 0.0 ] } },
{ "type": "Feature", "properties": { "name": "宮城 第1-018号 昭和８年３月３日　大震嘯記念碑（荻浜）", "prefecture": "宮城", "code": "宮城第1-018号", "category": 1, "Id": 113 }, "geometry": { "type": "Point", "coordinates": [ 141.4477413, 38.377997, 0.0 ] } },
{ "type": "Feature", "properties": { "name": "宮城 第1-019号 昭和８年３月３日　大震嘯記念碑（小網倉）", "prefecture": "宮城", "code": "宮城第1-019号", "category": 1, "Id": 114 }, "geometry": { "type": "Point", "coordinates": [ 141.4593224, 38.3531714, 0.0 ] } },
{ "type": "Feature", "properties": { "name": "宮城 第1-020号 昭和８年３月３日　大震嘯記念碑（谷川）", "prefecture": "宮城", "code": "宮城第1-020号", "category": 1, "Id": 115 }, "geometry": { "type": "Point", "coordinates": [ 141.4849216, 38.3640665, 0.0 ] } },
{ "type": "Feature", "properties": { "name": "宮城 第1-021号 昭和８年３月３日　大震嘯記念碑（大谷川）", "prefecture": "宮城", "code": "宮城第1-021号", "category": 1, "Id": 116 }, "geometry": { "type": "Point", "coordinates": [ 141.482828500000011, 38.3724155, 0.0 ] } },
{ "type": "Feature", "properties": { "name": "宮城 第1-022号 昭和８年３月３日　大震嘯記念碑（小渕）", "prefecture": "宮城", "code": "宮城第1-022号", "category": 1, "Id": 117 }, "geometry": { "type": "Point", "coordinates": [ 141.4700836, 38.319519, 0.0 ] } },
{ "type": "Feature", "properties": { "name": "宮城 第1-023号 昭和８年３月３日　大震嘯記念碑（十八成）", "prefecture": "宮城", "code": "宮城第1-023号", "category": 1, "Id": 118 }, "geometry": { "type": "Point", "coordinates": [ 141.4907025, 38.3107912, 0.0 ] } },
{ "type": "Feature", "properties": { "name": "宮城 第1-024号 北上川7.9k右岸 津波到達情報看板", "prefecture": "宮城", "code": "宮城第1-024号", "category": 1, "Id": 119 }, "geometry": { "type": "Point", "coordinates": [ 141.3807689, 38.5336226, 0.0 ] } },
{ "type": "Feature", "properties": { "name": "宮城 第1-025号 旧北上川22.0k左岸 津波到達情報看板", "prefecture": "宮城", "code": "宮城第1-025号", "category": 1, "Id": 120 }, "geometry": { "type": "Point", "coordinates": [ 141.231826500000011, 38.5275627, 0.0 ] } },
{ "type": "Feature", "properties": { "name": "宮城 第1-026号 旧北上川22.0k右岸 津波到達情報看板", "prefecture": "宮城", "code": "宮城第1-026号", "category": 1, "Id": 121 }, "geometry": { "type": "Point", "coordinates": [ 141.2251928, 38.5280626, 0.0 ] } },
{ "type": "Feature", "properties": { "name": "宮城 第1-027号 旧北上川33.2k左岸 津波到達情報看板", "prefecture": "宮城", "code": "宮城第1-027号", "category": 1, "Id": 122 }, "geometry": { "type": "Point", "coordinates": [ 141.2808645, 38.6035724, 0.0 ] } },
{ "type": "Feature", "properties": { "name": "宮城 第1-028号 江合川2.0k右岸 津波到達情報看板", "prefecture": "宮城", "code": "宮城第1-028号", "category": 1, "Id": 123 }, "geometry": { "type": "Point", "coordinates": [ 141.2023043, 38.5393189, 0.0 ] } },
{ "type": "Feature", "properties": { "name": "宮城 第1-029号 旧北上川内陸部 復旧・復興の概要看板 （右岸22.0k）", "prefecture": "宮城", "code": "宮城第1-029号", "category": 1, "Id": 124 }, "geometry": { "type": "Point", "coordinates": [ 141.226263100000011, 38.5260462, 0.0 ] } },
{ "type": "Feature", "properties": { "name": "宮城 第1-030号 北上川河口部 復旧・復興の概要看板 （左岸-0.4k）", "prefecture": "宮城", "code": "宮城第1-030号", "category": 1, "Id": 125 }, "geometry": { "type": "Point", "coordinates": [ 141.452853299999987, 38.5764479, 0.0 ] } },
{ "type": "Feature", "properties": { "name": "宮城 第1-034号 神の倉の津波石", "prefecture": "宮城", "code": "宮城第1-034号", "category": 1, "Id": 126 }, "geometry": { "type": "Point", "coordinates": [ 141.6687559, 38.8698448, 0.0 ] } },
{ "type": "Feature", "properties": { "name": "宮城 第1-035号 津波石碑 （昭和八年三月三日 大震嘯災記念）", "prefecture": "宮城", "code": "宮城第1-035号", "category": 1, "Id": 127 }, "geometry": { "type": "Point", "coordinates": [ 141.6301094, 38.9597655, 0.0 ] } },
{ "type": "Feature", "properties": { "name": "宮城 第1-036号 津波石碑 （大震嘯災記念）", "prefecture": "宮城", "code": "宮城第1-036号", "category": 1, "Id": 128 }, "geometry": { "type": "Point", "coordinates": [ 141.6090455, 38.8824903, 0.0 ] } },
{ "type": "Feature", "properties": { "name": "宮城 第1-037号 津波石碑 （大震嘯災記念）", "prefecture": "宮城", "code": "宮城第1-037号", "category": 1, "Id": 129 }, "geometry": { "type": "Point", "coordinates": [ 141.6040327, 38.8886156, 0.0 ] } },
{ "type": "Feature", "properties": { "name": "宮城 第1-038号 津波石碑 （大震嘯災記念） ", "prefecture": "宮城", "code": "宮城第1-038号", "category": 1, "Id": 130 }, "geometry": { "type": "Point", "coordinates": [ 141.5871555, 38.9081273, 0.0 ] } },
{ "type": "Feature", "properties": { "name": "宮城 第1-040号 名取海岸堤防復旧説明看板 ", "prefecture": "宮城", "code": "宮城第1-040号", "category": 1, "Id": 131 }, "geometry": { "type": "Point", "coordinates": [ 140.9419585, 38.1342193, 0.0 ] } },
{ "type": "Feature", "properties": { "name": "宮城 第1-041号 津波石碑 （震嘯記念）", "prefecture": "宮城", "code": "宮城第1-041号", "category": 1, "Id": 132 }, "geometry": { "type": "Point", "coordinates": [ 140.9542135, 38.1724017, 0.0 ] } },
{ "type": "Feature", "properties": { "name": "宮城 第1-042号 阿武隈川河口部左岸 　津波到達情報看板", "prefecture": "宮城", "code": "宮城第1-042号", "category": 1, "Id": 133 }, "geometry": { "type": "Point", "coordinates": [ 140.9220187, 38.0510009, 0.0 ] } },
{ "type": "Feature", "properties": { "name": "宮城 第1-043号 阿武隈川寺島堤防の説明看板", "prefecture": "宮城", "code": "宮城第1-043号", "category": 1, "Id": 134 }, "geometry": { "type": "Point", "coordinates": [ 140.9113759, 38.0793637, 0.0 ] } },
{ "type": "Feature", "properties": { "name": "宮城 第1-044号 岩沼海岸堤防復旧説明看板", "prefecture": "宮城", "code": "宮城第1-044号", "category": 1, "Id": 135 }, "geometry": { "type": "Point", "coordinates": [ 140.9214677, 38.0509452, 0.0 ] } },
{ "type": "Feature", "properties": { "name": "宮城 第1-045号 北上川25.6k右岸 津波到達情報看板", "prefecture": "宮城", "code": "宮城第1-045号", "category": 1, "Id": 136 }, "geometry": { "type": "Point", "coordinates": [ 141.2960463, 38.6009143, 0.0 ] } },
{ "type": "Feature", "properties": { "name": "宮城 第1-046号 北上川25.6k左岸 津波到達情報看板", "prefecture": "宮城", "code": "宮城第1-046号", "category": 1, "Id": 137 }, "geometry": { "type": "Point", "coordinates": [ 141.3003488, 38.6033964, 0.0 ] } },
{ "type": "Feature", "properties": { "name": "宮城 第1-047号 北上川32.0k左岸 津波到達情報看板", "prefecture": "宮城", "code": "宮城第1-047号", "category": 1, "Id": 138 }, "geometry": { "type": "Point", "coordinates": [ 141.288551, 38.6570753, 0.0 ] } },
{ "type": "Feature", "properties": { "name": "宮城 第1-048号 北上川32.1k右岸 津波到達情報看板", "prefecture": "宮城", "code": "宮城第1-048号", "category": 1, "Id": 139 }, "geometry": { "type": "Point", "coordinates": [ 141.2862242, 38.6588343, 0.0 ] } },
{ "type": "Feature", "properties": { "name": "宮城 第1-049号  北上川48.9k右岸 津波到達情報看板", "prefecture": "宮城", "code": "宮城第1-049号", "category": 1, "Id": 140 }, "geometry": { "type": "Point", "coordinates": [ 141.27114, 38.7635869, 0.0 ] } },
{ "type": "Feature", "properties": { "name": "宮城 第1-050 号 北上川48.9k左岸 津波到達情報看板", "prefecture": "宮城", "code": "宮城第1-050号", "category": 1, "Id": 141 }, "geometry": { "type": "Point", "coordinates": [ 141.2746457, 38.7656189, 0.0 ] } },
{ "type": "Feature", "properties": { "name": "宮城 第1-051号 北上川内陸部 復旧・復興の概要看板 （左岸36.9k）", "prefecture": "宮城", "code": "宮城第1-051号", "category": 1, "Id": 142 }, "geometry": { "type": "Point", "coordinates": [ 141.2892864, 38.7015751, 0.0 ] } },
{ "type": "Feature", "properties": { "name": "宮城 第1-052号 鳴瀬川0.3k左岸 津波到達情報看板", "prefecture": "宮城", "code": "宮城第1-052号", "category": 1, "Id": 143 }, "geometry": { "type": "Point", "coordinates": [ 141.1751504, 38.3785266, 0.0 ] } },
{ "type": "Feature", "properties": { "name": "宮城 第1-053号 鳴瀬川0.6k右岸 津波到達情報看板", "prefecture": "宮城", "code": "宮城第1-053号", "category": 1, "Id": 144 }, "geometry": { "type": "Point", "coordinates": [ 141.1699328, 38.3794702, 0.0 ] } },
{ "type": "Feature", "properties": { "name": "宮城 第1-054号 鳴瀬川4.1k左岸 津波到達情報看板", "prefecture": "宮城", "code": "宮城第1-054号", "category": 1, "Id": 145 }, "geometry": { "type": "Point", "coordinates": [ 141.1505043, 38.4074543, 0.0 ] } },
{ "type": "Feature", "properties": { "name": "宮城 第1-055号 吉田川4.2k右岸 津波到達情報看板", "prefecture": "宮城", "code": "宮城第1-055号", "category": 1, "Id": 146 }, "geometry": { "type": "Point", "coordinates": [ 141.1469337, 38.4063361, 0.0 ] } },
{ "type": "Feature", "properties": { "name": "宮城 第1-056号 鳴瀬川内陸部 復旧・復興の概要看板 （鳴瀬堰）", "prefecture": "宮城", "code": "宮城第1-056号", "category": 1, "Id": 147 }, "geometry": { "type": "Point", "coordinates": [ 141.147240900000014, 38.4137649, 0.0 ] } },
{ "type": "Feature", "properties": { "name": "宮城 第1-057号 鳴瀬川河口部 復旧・復興の概要看板 （野蒜水門）", "prefecture": "宮城", "code": "宮城第1-057号", "category": 1, "Id": 148 }, "geometry": { "type": "Point", "coordinates": [ 141.1696053, 38.3792959, 0.0 ] } },
{ "type": "Feature", "properties": { "name": "宮城 第1-058号 3.11東日本大震災伝承板－定川河川災害復旧工事－", "prefecture": "宮城", "code": "宮城第1-058号", "category": 1, "Id": 149 }, "geometry": { "type": "Point", "coordinates": [ 141.2484921, 38.4310048, 0.0 ] } },
{ "type": "Feature", "properties": { "name": "宮城 第1-059号 鳴瀬川17.6k右岸 津波到達情報看板", "prefecture": "宮城", "code": "宮城第1-059号", "category": 1, "Id": 150 }, "geometry": { "type": "Point", "coordinates": [ 141.113925200000011, 38.4975577, 0.0 ] } },
{ "type": "Feature", "properties": { "name": "宮城 第1-060号 江合川内陸部 復旧・復興の概要看板 （右岸26.5k）", "prefecture": "宮城", "code": "宮城第1-060号", "category": 1, "Id": 151 }, "geometry": { "type": "Point", "coordinates": [ 140.9777191, 38.5814314, 0.0 ] } },
{ "type": "Feature", "properties": { "name": "宮城 第1-061号 阿武隈川河口部右岸　 津波到達情報看板", "prefecture": "宮城", "code": "宮城第1-061号", "category": 1, "Id": 152 }, "geometry": { "type": "Point", "coordinates": [ 140.9188523, 38.0432149, 0.0 ] } },
{ "type": "Feature", "properties": { "name": "宮城 第1-0062号 山元海岸堤防復旧説明看板", "prefecture": "宮城", "code": "宮城第1-0062号", "category": 1, "Id": 153 }, "geometry": { "type": "Point", "coordinates": [ 140.9149003, 37.963626, 0.0 ] } },
{ "type": "Feature", "properties": { "name": "宮城 第1-063号 吉田川9.0k右岸 津波到達情報看板", "prefecture": "宮城", "code": "宮城第1-063号", "category": 1, "Id": 154 }, "geometry": { "type": "Point", "coordinates": [ 141.1127038, 38.4368205, 0.0 ] } },
{ "type": "Feature", "properties": { "name": "宮城 第1-064号 吉田川13.6k左岸 津波到達情報看板", "prefecture": "宮城", "code": "宮城第1-064号", "category": 1, "Id": 155 }, "geometry": { "type": "Point", "coordinates": [ 141.068058400000012, 38.4400936, 0.0 ] } },
{ "type": "Feature", "properties": { "name": "宮城 第1-065号 吉田川14.0k右岸 津波到達情報看板", "prefecture": "宮城", "code": "宮城第1-065号", "category": 1, "Id": 156 }, "geometry": { "type": "Point", "coordinates": [ 141.0631966, 38.4398625, 0.0 ] } },
{ "type": "Feature", "properties": { "name": "宮城 第1-066号 吉田川内陸部 復旧・復興の概要看板 （右岸13.6k）", "prefecture": "宮城", "code": "宮城第1-066号", "category": 1, "Id": 157 }, "geometry": { "type": "Point", "coordinates": [ 141.0683249, 38.437444, 0.0 ] } },
{ "type": "Feature", "properties": { "name": "宮城 第1-067号 吉田川内陸部 復旧・復興の概要看板 （左岸17.4k）", "prefecture": "宮城", "code": "宮城第1-067号", "category": 1, "Id": 158 }, "geometry": { "type": "Point", "coordinates": [ 141.025119100000012, 38.4454368, 0.0 ] } },
{ "type": "Feature", "properties": { "name": "宮城 第1-068号 江合川2.0k左岸 津波到達情報看板", "prefecture": "宮城", "code": "宮城第1-068号", "category": 1, "Id": 159 }, "geometry": { "type": "Point", "coordinates": [ 141.2037908, 38.5406919, 0.0 ] } },
{ "type": "Feature", "properties": { "name": "宮城 第1-069号 江合川内陸部 復旧・復興の概要看板 （左岸14.6k）", "prefecture": "宮城", "code": "宮城第1-069号", "category": 1, "Id": 160 }, "geometry": { "type": "Point", "coordinates": [ 141.1007569, 38.5552389, 0.0 ] } },
{ "type": "Feature", "properties": { "name": "宮城 第1-070号 鳴瀬川17.2k左岸 津波到達情報看板", "prefecture": "宮城", "code": "宮城第1-070号", "category": 1, "Id": 161 }, "geometry": { "type": "Point", "coordinates": [ 141.1201939, 38.4974846, 0.0 ] } },
{ "type": "Feature", "properties": { "name": "宮城 第1-071号 江合川内陸部 復旧・復興の概要看板 （右岸19.0k)", "prefecture": "宮城", "code": "宮城第1-071号", "category": 1, "Id": 162 }, "geometry": { "type": "Point", "coordinates": [ 141.0522494, 38.5608214, 0.0 ] } },
{ "type": "Feature", "properties": { "name": "宮城 第1-072号 昭和８年３月３日　大震嘯記念碑", "prefecture": "宮城", "code": "宮城第1-072号", "category": 1, "Id": 163 }, "geometry": { "type": "Point", "coordinates": [ 141.551248500000014, 38.2975925, 0.0 ] } },
{ "type": "Feature", "properties": { "name": "宮城 第1‐073号 昭和8年3月3日大海嘯記念碑（荒浜）", "prefecture": "宮城", "code": "宮城第1‐073号", "category": 1, "Id": 164 }, "geometry": { "type": "Point", "coordinates": [ 141.530301799999989, 38.5315799, 0.0 ] } },
{ "type": "Feature", "properties": { "name": "宮城 第1-074 震災伝承看板「津波を受けても落ちなかった橋（二十一浜橋）」", "prefecture": "宮城", "code": "宮城第1-074号", "category": 1, "Id": 165 }, "geometry": { "type": "Point", "coordinates": [ 141.521233099999989, 38.7586066, 0.0 ] } },
{ "type": "Feature", "properties": { "name": "宮城 第1-075号 津波記憶石第2号", "prefecture": "宮城", "code": "宮城第1-075号", "category": 1, "Id": 166 }, "geometry": { "type": "Point", "coordinates": [ 141.5069258, 38.7666332, 0.0 ] } },
{ "type": "Feature", "properties": { "name": "宮城 第1-076号 津波記憶石32号", "prefecture": "宮城", "code": "宮城第1-076号", "category": 1, "Id": 167 }, "geometry": { "type": "Point", "coordinates": [ 141.5815542, 38.914183, 0.0 ] } },
{ "type": "Feature", "properties": { "name": "福島 第1-001号 稲荷神社", "prefecture": "福島", "code": "福島第1-001号", "category": 1, "Id": 168 }, "geometry": { "type": "Point", "coordinates": [ 140.9997481, 37.1422179, 0.0 ] } },
{ "type": "Feature", "properties": { "name": "福島 第1-002号 末続地区東日本大震災之碑", "prefecture": "福島", "code": "福島第1-002号", "category": 1, "Id": 169 }, "geometry": { "type": "Point", "coordinates": [ 140.9967954, 37.1732488, 0.0 ] } },
{ "type": "Feature", "properties": { "name": "福島 第1-003号 久ノ浜・大久地区東日本大震災追悼伝承之碑", "prefecture": "福島", "code": "福島第1-003号", "category": 1, "Id": 170 }, "geometry": { "type": "Point", "coordinates": [ 140.999717, 37.1421804, 0.0 ] } },
{ "type": "Feature", "properties": { "name": "福島 第1-004号 震災記念公園", "prefecture": "福島", "code": "福島第1-004号", "category": 1, "Id": 171 }, "geometry": { "type": "Point", "coordinates": [ 141.002995700000014, 37.2101236, 0.0 ] } },
{ "type": "Feature", "properties": { "name": "福島 第1-005号 久之浜防災緑地", "prefecture": "福島", "code": "福島第1-005号", "category": 1, "Id": 172 }, "geometry": { "type": "Point", "coordinates": [ 140.9999932, 37.1420918, 0.0 ] } },
{ "type": "Feature", "properties": { "name": "宮城 第1-077号 はなはなプロジェクト 浪分櫻第５号", "prefecture": "宮城", "code": "宮城第1-077号", "category": 1, "Id": 173 }, "geometry": { "type": "Point", "coordinates": [ 141.42463, 38.567354, 0.0 ] } },
{ "type": "Feature", "properties": { "name": "宮城 第1-078号 はなはなプロジェクト 浪分櫻第６号", "prefecture": "宮城", "code": "宮城第1-078号", "category": 1, "Id": 174 }, "geometry": { "type": "Point", "coordinates": [ 141.0149798, 38.3171185, 0.0 ] } },
{ "type": "Feature", "properties": { "name": "宮城 第1-079号 はなはなプロジェクト 浪分櫻第12号", "prefecture": "宮城", "code": "宮城第1-079号", "category": 1, "Id": 175 }, "geometry": { "type": "Point", "coordinates": [ 141.060995, 38.3697401, 0.0 ] } },
{ "type": "Feature", "properties": { "name": "宮城 第1-080号 はなはなプロジェクト 浪分櫻第15号", "prefecture": "宮城", "code": "宮城第1-080号", "category": 1, "Id": 176 }, "geometry": { "type": "Point", "coordinates": [ 141.4397132, 38.6381863, 0.0 ] } },
{ "type": "Feature", "properties": { "name": "宮城 第1-081号 はなはなプロジェクト 浪分櫻第16号", "prefecture": "宮城", "code": "宮城第1-081号", "category": 1, "Id": 177 }, "geometry": { "type": "Point", "coordinates": [ 141.4495062, 38.6840949, 0.0 ] } },
{ "type": "Feature", "properties": { "name": "宮城 第1-082号 はなはなプロジェクト 安寧櫻第６号", "prefecture": "宮城", "code": "宮城第1-082号", "category": 1, "Id": 178 }, "geometry": { "type": "Point", "coordinates": [ 140.8972832, 38.1079464, 0.0 ] } },
{ "type": "Feature", "properties": { "name": "青森 第2-001号 津波の碑", "prefecture": "青森", "code": "青森第2-001号", "category": 2, "Id": 179 }, "geometry": { "type": "Point", "coordinates": [ 141.428336300000012, 40.680496, 0.0 ] } },
{ "type": "Feature", "properties": { "name": "青森 第2-002号 八戸港震災復興メモリアル看板", "prefecture": "青森", "code": "青森第2-002号", "category": 2, "Id": 180 }, "geometry": { "type": "Point", "coordinates": [ 141.506979800000011, 40.5480728, 0.0 ] } },
{ "type": "Feature", "properties": { "name": "青森 第2-003号 津波記憶石29号", "prefecture": "青森", "code": "青森第2-003号", "category": 2, "Id": 181 }, "geometry": { "type": "Point", "coordinates": [ 141.456245200000012, 40.5903423, 0.0 ] } },
{ "type": "Feature", "properties": { "name": "青森 第2₋004号_津波の証", "prefecture": "青森", "code": "青森第2₋004号", "category": 2, "Id": 182 }, "geometry": { "type": "Point", "coordinates": [ 141.4365229, 40.6763117, 0.0 ] } },
{ "type": "Feature", "properties": { "name": "青森 第2-005号_津波記憶石30号", "prefecture": "青森", "code": "青森第2-005号", "category": 2, "Id": 183 }, "geometry": { "type": "Point", "coordinates": [ 141.462429899999989, 40.5868123, 0.0 ] } },
{ "type": "Feature", "properties": { "name": "青森 第3-001号 八戸市みなと体験学習館", "prefecture": "青森", "code": "青森第3-001号", "category": 3, "Id": 184 }, "geometry": { "type": "Point", "coordinates": [ 141.5222834, 40.5275569, 0.0 ] } },
{ "type": "Feature", "properties": { "name": "福島 第2-001号 井戸沢断層", "prefecture": "福島", "code": "福島第2-001号", "category": 2, "Id": 185 }, "geometry": { "type": "Point", "coordinates": [ 140.6869209, 36.9947514, 0.0 ] } },
{ "type": "Feature", "properties": { "name": "福島 第2-002号 沼ノ内防災緑地", "prefecture": "福島", "code": "福島第2-002号", "category": 2, "Id": 186 }, "geometry": { "type": "Point", "coordinates": [ 140.975039, 37.0118617, 0.0 ] } },
{ "type": "Feature", "properties": { "name": "福島 第2-003号 薄磯防災緑地", "prefecture": "福島", "code": "福島第2-003号", "category": 2, "Id": 187 }, "geometry": { "type": "Point", "coordinates": [ 140.9785762, 37.0004394, 0.0 ] } },
{ "type": "Feature", "properties": { "name": "福島 第2-004号 豊間地区東日本大震災慰霊碑", "prefecture": "福島", "code": "福島第2-004号", "category": 2, "Id": 188 }, "geometry": { "type": "Point", "coordinates": [ 140.9678554, 36.9866607, 0.0 ] } },
{ "type": "Feature", "properties": { "name": "福島 第2-005号 永崎防災緑地", "prefecture": "福島", "code": "福島第2-005号", "category": 2, "Id": 189 }, "geometry": { "type": "Point", "coordinates": [ 140.9389935, 36.9544847, 0.0 ] } },
{ "type": "Feature", "properties": { "name": "福島 第2-006号 岩間防災緑地", "prefecture": "福島", "code": "福島第2-006号", "category": 2, "Id": 190 }, "geometry": { "type": "Point", "coordinates": [ 140.8256825, 36.9138431, 0.0 ] } },
{ "type": "Feature", "properties": { "name": "福島 第2-007号 四倉防災緑地", "prefecture": "福島", "code": "福島第2-007号", "category": 2, "Id": 191 }, "geometry": { "type": "Point", "coordinates": [ 140.986753599999986, 37.0979924, 0.0 ] } },
{ "type": "Feature", "properties": { "name": "福島 第2-008号 豊間防災緑地", "prefecture": "福島", "code": "福島第2-008号", "category": 2, "Id": 192 }, "geometry": { "type": "Point", "coordinates": [ 140.9683603, 36.9857321, 0.0 ] } },
{ "type": "Feature", "properties": { "name": "福島 第2-009号 葉ノ木平震災復興記念公園", "prefecture": "福島", "code": "福島第2-009号", "category": 2, "Id": 193 }, "geometry": { "type": "Point", "coordinates": [ 140.2187039, 37.1384107, 0.0 ] } },
{ "type": "Feature", "properties": { "name": "福島 第2-010号 相馬市防災備蓄倉庫", "prefecture": "福島", "code": "福島第2-010号", "category": 2, "Id": 194 }, "geometry": { "type": "Point", "coordinates": [ 140.922969200000011, 37.7687142, 0.0 ] } },
{ "type": "Feature", "properties": { "name": "福島 第2-011号 相馬港沖防波堤災害復旧事業完了祈念銘板", "prefecture": "福島", "code": "福島第2-011号", "category": 2, "Id": 195 }, "geometry": { "type": "Point", "coordinates": [ 140.963898300000011, 37.8305627, 0.0 ] } },
{ "type": "Feature", "properties": { "name": "福島 第2-012号 ひろの防災緑地", "prefecture": "福島", "code": "福島第2-012号", "category": 2, "Id": 196 }, "geometry": { "type": "Point", "coordinates": [ 141.0044968, 37.2110304, 0.0 ] } },
{ "type": "Feature", "properties": { "name": "福島 第2-013号 埒浜地区防災緑地", "prefecture": "福島", "code": "福島第2-013号", "category": 2, "Id": 197 }, "geometry": { "type": "Point", "coordinates": [ 140.9311764, 37.8907668, 0.0 ] } },
{ "type": "Feature", "properties": { "name": "福島 第2-014号 復興フラッグ公園", "prefecture": "福島", "code": "福島第2-014号", "category": 2, "Id": 198 }, "geometry": { "type": "Point", "coordinates": [ 140.9334513, 37.8765157, 0.0 ] } },
{ "type": "Feature", "properties": { "name": "福島 第2-015号 震災伝承看板　津波被害からいち早く再開した地域振興の拠点（道の駅よつくら港）", "prefecture": "福島", "code": "福島第2-015号", "category": 2, "Id": 199 }, "geometry": { "type": "Point", "coordinates": [ 140.9932929, 37.1074656, 0.0 ] } },
{ "type": "Feature", "properties": { "name": "福島 第2-016号 震災伝承看板「広域支援・物資輸送を行った救難救助の拠点（福島空港・あぶくま高原道路）」", "prefecture": "福島", "code": "福島第2-016号", "category": 2, "Id": 200 }, "geometry": { "type": "Point", "coordinates": [ 140.433551200000011, 37.226819, 0.0 ] } },
{ "type": "Feature", "properties": { "name": "福島 第2-017号 震災伝承看板「津波被害から地域を守った「相馬バイパス」」", "prefecture": "福島", "code": "福島第2-017号", "category": 2, "Id": 201 }, "geometry": { "type": "Point", "coordinates": [ 140.9317646, 37.8365718, 0.0 ] } },
{ "type": "Feature", "properties": { "name": "福島 第2-018号 津波防災対策ビューポイント”みるーる天神”", "prefecture": "福島", "code": "福島第2-018号", "category": 2, "Id": 202 }, "geometry": { "type": "Point", "coordinates": [ 141.0126385, 37.2662729, 0.0 ] } },
{ "type": "Feature", "properties": { "name": "福島 第2-019号 復興公営住宅城北団地", "prefecture": "福島", "code": "福島第2-019号", "category": 2, "Id": 203 }, "geometry": { "type": "Point", "coordinates": [ 139.927471, 37.5048244, 0.0 ] } },
{ "type": "Feature", "properties": { "name": "福島 第2-020号 福島いこいの村なみえ", "prefecture": "福島", "code": "福島第2-020号", "category": 2, "Id": 204 }, "geometry": { "type": "Point", "coordinates": [ 140.998462, 37.4798881, 0.0 ] } },
{ "type": "Feature", "properties": { "name": "福島 第2-021号 一棟貸ヴィレッヂ　かわべり棟", "prefecture": "福島", "code": "福島第2-021号", "category": 2, "Id": 205 }, "geometry": { "type": "Point", "coordinates": [ 139.5928284, 37.4658943, 0.0 ] } },
{ "type": "Feature", "properties": { "name": "福島 第2-022号 原釜・尾浜防災緑地", "prefecture": "福島", "code": "福島第2-022号", "category": 2, "Id": 206 }, "geometry": { "type": "Point", "coordinates": [ 140.955691, 37.8314111, 0.0 ] } },
{ "type": "Feature", "properties": { "name": "福島 第2‐023号 震災伝承看板「観光ルートを支える市道と一体となった『松川大洲・大浜地区海岸堤防』", "prefecture": "福島", "code": "福島第2‐023号", "category": 2, "Id": 207 }, "geometry": { "type": "Point", "coordinates": [ 140.9856086, 37.8223491, 0.0 ] } },
{ "type": "Feature", "properties": { "name": "福島 第2₋024号_震災伝承看板「地域の防災と基幹産業を支える『請戸漁港』」", "prefecture": "福島", "code": "福島第2₋024号", "category": 2, "Id": 208 }, "geometry": { "type": "Point", "coordinates": [ 141.040494, 37.480108, 0.0 ] } },
{ "type": "Feature", "properties": { "name": "福島 第2₋025号 南相馬市メモリアルパーク", "prefecture": "福島", "code": "福島第2₋025号", "category": 2, "Id": 209 }, "geometry": { "type": "Point", "coordinates": [ 141.0177693, 37.6564903, 0.0 ] } },
{ "type": "Feature", "properties": { "name": "福島 第3-001号 アクアマリンふくしま", "prefecture": "福島", "code": "福島第3-001号", "category": 3, "Id": 210 }, "geometry": { "type": "Point", "coordinates": [ 140.9014009, 36.943422, 0.0 ] } },
{ "type": "Feature", "properties": { "name": "福島 第3-002号 いわき市ライブミュウじあむ「3.11いわきの東日本大震災展」", "prefecture": "福島", "code": "福島第3-002号", "category": 3, "Id": 211 }, "geometry": { "type": "Point", "coordinates": [ 140.9058335, 36.944481, 0.0 ] } },
{ "type": "Feature", "properties": { "name": "福島 第3-003号 いわき市地域防災交流センター 久之浜・大久ふれあい館", "prefecture": "福島", "code": "福島第3-003号", "category": 3, "Id": 212 }, "geometry": { "type": "Point", "coordinates": [ 140.9979124, 37.1415621, 0.0 ] } },
{ "type": "Feature", "properties": { "name": "福島 第3-004号 相馬市伝承鎮魂祈念館", "prefecture": "福島", "code": "福島第3-004号", "category": 3, "Id": 213 }, "geometry": { "type": "Point", "coordinates": [ 140.9643012, 37.8299928, 0.0 ] } },
{ "type": "Feature", "properties": { "name": "福島 第3-005号 福島県環境創造センター交流館\n「コミュタン福島」", "prefecture": "福島", "code": "福島第3-005号", "category": 3, "Id": 214 }, "geometry": { "type": "Point", "coordinates": [ 140.5198551, 37.4349225, 0.0 ] } },
{ "type": "Feature", "properties": { "name": "福島 第3-006号 小峰城", "prefecture": "福島", "code": "福島第3-006号", "category": 3, "Id": 215 }, "geometry": { "type": "Point", "coordinates": [ 140.2124192, 37.132112, 0.0 ] } },
{ "type": "Feature", "properties": { "name": "福島 第3-007号 みんなの交流館ならはCANvas", "prefecture": "福島", "code": "福島第3-007号", "category": 3, "Id": 216 }, "geometry": { "type": "Point", "coordinates": [ 140.996277600000013, 37.2775118, 0.0 ] } },
{ "type": "Feature", "properties": { "name": "福島 第3-008号 いわき震災みらい館", "prefecture": "福島", "code": "福島第3-008号", "category": 3, "Id": 217 }, "geometry": { "type": "Point", "coordinates": [ 140.9785321, 36.9994961, 0.0 ] } },
{ "type": "Feature", "properties": { "name": "福島 第3-009号 東日本大震災・原子力災害伝承館", "prefecture": "福島", "code": "福島第3-009号", "category": 3, "Id": 218 }, "geometry": { "type": "Point", "coordinates": [ 141.02621640000001, 37.4578981, 0.0 ] } },
{ "type": "Feature", "properties": { "name": "福島 第3-011号 National Training Center J-ビレッジ", "prefecture": "福島", "code": "福島第3-011号", "category": 3, "Id": 219 }, "geometry": { "type": "Point", "coordinates": [ 141.0014102, 37.2451338, 0.0 ] } },
{ "type": "Feature", "properties": { "name": "福島 第3₋012号 震災遺構浪江町立請戸小学校", "prefecture": "福島", "code": "福島第3₋012号", "category": 3, "Id": 220 }, "geometry": { "type": "Point", "coordinates": [ 141.0350886, 37.4752566, 0.0 ] } },
{ "type": "Feature", "properties": { "name": "福島 第3-013号 とみおかアーカイブミュージアム", "prefecture": "福島", "code": "福島第3-013号", "category": 3, "Id": 221 }, "geometry": { "type": "Point", "coordinates": [ 141.008520800000014, 37.3478503, 0.0 ] } },
{ "type": "Feature", "properties": { "name": "福島 第3-014号 楢葉町×東京大学総合研究博物館連携ミュージアム　大地とまちのタイムライン", "prefecture": "福島", "code": "福島第3-014号", "category": 3, "Id": 222 }, "geometry": { "type": "Point", "coordinates": [ 140.9933548, 37.2820162, 0.0 ] } },
{ "type": "Feature", "properties": { "name": "岩手 第2-001号 大船渡市民体育館前屋外時計", "prefecture": "岩手", "code": "岩手第2-001号", "category": 2, "Id": 223 }, "geometry": { "type": "Point", "coordinates": [ 141.7160748, 39.080153, 0.0 ] } },
{ "type": "Feature", "properties": { "name": "岩手 第2-002号 潮目", "prefecture": "岩手", "code": "岩手第2-002号", "category": 2, "Id": 224 }, "geometry": { "type": "Point", "coordinates": [ 141.8108383, 39.1172905, 0.0 ] } },
{ "type": "Feature", "properties": { "name": "岩手 第2-003号 ケルン・鎮魂の鐘と光", "prefecture": "岩手", "code": "岩手第2-003号", "category": 2, "Id": 225 }, "geometry": { "type": "Point", "coordinates": [ 141.7981202, 40.189647, 0.0 ] } },
{ "type": "Feature", "properties": { "name": "岩手 第2-004号 故和村幸得元普代村長顕彰碑", "prefecture": "岩手", "code": "岩手第2-004号", "category": 2, "Id": 226 }, "geometry": { "type": "Point", "coordinates": [ 141.8951246, 40.0114409, 0.0 ] } },
{ "type": "Feature", "properties": { "name": "岩手 第2-005号 太田名部防潮堤", "prefecture": "岩手", "code": "岩手第2-005号", "category": 2, "Id": 227 }, "geometry": { "type": "Point", "coordinates": [ 141.905193, 40.0089189, 0.0 ] } },
{ "type": "Feature", "properties": { "name": "岩手 第2-006号 普代水門", "prefecture": "岩手", "code": "岩手第2-006号", "category": 2, "Id": 228 }, "geometry": { "type": "Point", "coordinates": [ 141.89527480000001, 40.0122066, 0.0 ] } },
{ "type": "Feature", "properties": { "name": "岩手 第2-007号 米田歩道橋の一部", "prefecture": "岩手", "code": "岩手第2-007号", "category": 2, "Id": 229 }, "geometry": { "type": "Point", "coordinates": [ 141.8249738, 40.0968741, 0.0 ] } },
{ "type": "Feature", "properties": { "name": "岩手 第2-008号 茶茶丸パーク時計塔", "prefecture": "岩手", "code": "岩手第2-008号", "category": 2, "Id": 230 }, "geometry": { "type": "Point", "coordinates": [ 141.72387710000001, 39.0619827, 0.0 ] } },
{ "type": "Feature", "properties": { "name": "岩手 第2-009号 夢海公園", "prefecture": "岩手", "code": "岩手第2-009号", "category": 2, "Id": 231 }, "geometry": { "type": "Point", "coordinates": [ 141.7233237, 39.0624841, 0.0 ] } },
{ "type": "Feature", "properties": { "name": "岩手 第2-010号 ど根性ポプラ", "prefecture": "岩手", "code": "岩手第2-010号", "category": 2, "Id": 232 }, "geometry": { "type": "Point", "coordinates": [ 141.8141693, 39.1176609, 0.0 ] } },
{ "type": "Feature", "properties": { "name": "岩手 第2-011号 津波警報等（加茂神社境内）", "prefecture": "岩手", "code": "岩手第2-011号", "category": 2, "Id": 233 }, "geometry": { "type": "Point", "coordinates": [ 141.7177759, 39.0591234, 0.0 ] } },
{ "type": "Feature", "properties": { "name": "岩手 第2-012号 震災伝承看板「子どもたちの命を救った避難階段（国道45号）」", "prefecture": "岩手", "code": "岩手第2-012号", "category": 2, "Id": 234 }, "geometry": { "type": "Point", "coordinates": [ 141.968644500000011, 39.8450942, 0.0 ] } },
{ "type": "Feature", "properties": { "name": "岩手 第2-013号 震災伝承看板「海上からの緊急支援物資輸送ルートを啓く（宮古港）」", "prefecture": "岩手", "code": "岩手第2-013号", "category": 2, "Id": 235 }, "geometry": { "type": "Point", "coordinates": [ 141.970239, 39.639336, 0.0 ] } },
{ "type": "Feature", "properties": { "name": "岩手 第2-014号 震災伝承看板「子どもたちの命を救った道（三陸沿岸道路 釜石山田道路）」", "prefecture": "岩手", "code": "岩手第2-014号", "category": 2, "Id": 236 }, "geometry": { "type": "Point", "coordinates": [ 141.8916238, 39.3263423, 0.0 ] } },
{ "type": "Feature", "properties": { "name": "岩手 第2-015号 震災伝承看板「救援ルートを切り啓いた「くしの歯作戦」（釜石市）」", "prefecture": "岩手", "code": "岩手第2-015号", "category": 2, "Id": 237 }, "geometry": { "type": "Point", "coordinates": [ 141.8720999, 39.2726491, 0.0 ] } },
{ "type": "Feature", "properties": { "name": "岩手 第2-016号 震災伝承看板「海上からの緊急支援物資輸送ルートを確保した航路啓開(釜石港)」「津波の教訓を活かした粘り強い防波堤(釜石港湾口防波堤)」", "prefecture": "岩手", "code": "岩手第2-016号", "category": 2, "Id": 238 }, "geometry": { "type": "Point", "coordinates": [ 141.891313200000013, 39.2743475, 0.0 ] } },
{ "type": "Feature", "properties": { "name": "岩手 第2‐017号 東日本大震災津波記念碑", "prefecture": "岩手", "code": "岩手第2‐017号", "category": 2, "Id": 239 }, "geometry": { "type": "Point", "coordinates": [ 141.95904010000001, 39.842978, 0.0 ] } },
{ "type": "Feature", "properties": { "name": "岩手 第2-018号 御蔵山復興祈念公園", "prefecture": "岩手", "code": "岩手第2-018号", "category": 2, "Id": 240 }, "geometry": { "type": "Point", "coordinates": [ 141.9512087, 39.4674083, 0.0 ] } },
{ "type": "Feature", "properties": { "name": "岩手 第2‐019号 3.11希望の灯り", "prefecture": "岩手", "code": "岩手第2‐019号", "category": 2, "Id": 241 }, "geometry": { "type": "Point", "coordinates": [ 141.6920299, 39.0106725, 0.0 ] } },
{ "type": "Feature", "properties": { "name": "岩手 第2‐020号 東日本大震災大津波記念碑", "prefecture": "岩手", "code": "岩手第2‐020号", "category": 2, "Id": 242 }, "geometry": { "type": "Point", "coordinates": [ 141.8250291, 40.0993315, 0.0 ] } },
{ "type": "Feature", "properties": { "name": "岩手 第2‐021号 米田水門", "prefecture": "岩手", "code": "岩手第2‐021号", "category": 2, "Id": 243 }, "geometry": { "type": "Point", "coordinates": [ 141.8260508, 40.0965134, 0.0 ] } },
{ "type": "Feature", "properties": { "name": "岩手 第2‐022号 旧下安家地区応急仮設住宅", "prefecture": "岩手", "code": "岩手第2‐022号", "category": 2, "Id": 244 }, "geometry": { "type": "Point", "coordinates": [ 141.8470973, 40.0581654, 0.0 ] } },
{ "type": "Feature", "properties": { "name": "岩手 第2-023号 ハナミズキのみち", "prefecture": "岩手", "code": "岩手第2-023号", "category": 2, "Id": 245 }, "geometry": { "type": "Point", "coordinates": [ 141.631939, 39.0097649, 0.0 ] } },
{ "type": "Feature", "properties": { "name": "岩手 第2-024 二度と散らないねがい桜（普門寺）", "prefecture": "岩手", "code": "岩手第2-024", "category": 2, "Id": 246 }, "geometry": { "type": "Point", "coordinates": [ 141.6569126, 39.026253, 0.0 ] } },
{ "type": "Feature", "properties": { "name": "岩手 第2-025号 愛宕参道大鳥居", "prefecture": "岩手", "code": "岩手第2-025号", "category": 2, "Id": 247 }, "geometry": { "type": "Point", "coordinates": [ 141.8183914, 40.1117059, 0.0 ] } },
{ "type": "Feature", "properties": { "name": "岩手 第2-026号 奇跡の東屋", "prefecture": "岩手", "code": "岩手第2-026号", "category": 2, "Id": 248 }, "geometry": { "type": "Point", "coordinates": [ 141.8270276, 40.1112933, 0.0 ] } },
{ "type": "Feature", "properties": { "name": "岩手 第2-027号 役場前の被災時計", "prefecture": "岩手", "code": "岩手第2-027号", "category": 2, "Id": 249 }, "geometry": { "type": "Point", "coordinates": [ 141.81785450000001, 40.1100041, 0.0 ] } },
{ "type": "Feature", "properties": { "name": "岩手 第2-028号 津波記憶石1号", "prefecture": "岩手", "code": "岩手第2-028号", "category": 2, "Id": 250 }, "geometry": { "type": "Point", "coordinates": [ 141.9005422, 39.3290655, 0.0 ] } },
{ "type": "Feature", "properties": { "name": "岩手 第2-029号 津波記憶石26号", "prefecture": "岩手", "code": "岩手第2-029号", "category": 2, "Id": 251 }, "geometry": { "type": "Point", "coordinates": [ 141.7992036, 39.0540361, 0.0 ] } },
{ "type": "Feature", "properties": { "name": "岩手 第2-030号 津波記憶石27号", "prefecture": "岩手", "code": "岩手第2-030号", "category": 2, "Id": 252 }, "geometry": { "type": "Point", "coordinates": [ 141.831646400000011, 39.1474313, 0.0 ] } },
{ "type": "Feature", "properties": { "name": "岩手 第2₋032号 震災伝承看板「津波の教訓を生かした粘り強い防波堤（大船渡港湾口防波堤）」", "prefecture": "岩手", "code": "岩手第2₋032号", "category": 2, "Id": 253 }, "geometry": { "type": "Point", "coordinates": [ 141.722754400000014, 39.0561456, 0.0 ] } },
{ "type": "Feature", "properties": { "name": "岩手 第2₋033号 陸前高田市東日本大震災追悼施設", "prefecture": "岩手", "code": "岩手第2₋033号", "category": 2, "Id": 254 }, "geometry": { "type": "Point", "coordinates": [ 141.628543900000011, 39.0151244, 0.0 ] } },
{ "type": "Feature", "properties": { "name": "岩手 第2₋034号 震災伝承看板「救援ルートを切り啓いた「くしの歯作戦」（陸前高田市）」", "prefecture": "岩手", "code": "岩手第2₋034号", "category": 2, "Id": 255 }, "geometry": { "type": "Point", "coordinates": [ 141.6319102, 39.0096105, 0.0 ] } },
{ "type": "Feature", "properties": { "name": "岩手 第2-035号 3.11仮設住宅体験館", "prefecture": "岩手", "code": "岩手第2-035号", "category": 2, "Id": 256 }, "geometry": { "type": "Point", "coordinates": [ 141.659661, 39.0096682, 0.0 ] } },
{ "type": "Feature", "properties": { "name": "岩手 第2-036号　祈りのモニュメント", "prefecture": "岩手", "code": "岩手第2-036号", "category": 2, "Id": 257 }, "geometry": { "type": "Point", "coordinates": [ 141.7250138, 39.0622188, 0.0 ] } },
{ "type": "Feature", "properties": { "name": "岩手 第3-001号 津波遺構たろう観光ホテル", "prefecture": "岩手", "code": "岩手第3-001号", "category": 3, "Id": 258 }, "geometry": { "type": "Point", "coordinates": [ 141.976010800000012, 39.7379344, 0.0 ] } },
{ "type": "Feature", "properties": { "name": "岩手 第3-002号 たろう潮里ステーション", "prefecture": "岩手", "code": "岩手第3-002号", "category": 3, "Id": 259 }, "geometry": { "type": "Point", "coordinates": [ 141.9719245, 39.7378208, 0.0 ] } },
{ "type": "Feature", "properties": { "name": "岩手 第3-003号 宮古市市民交流センター防災プラザ", "prefecture": "岩手", "code": "岩手第3-003号", "category": 3, "Id": 260 }, "geometry": { "type": "Point", "coordinates": [ 141.9460499, 39.6399278, 0.0 ] } },
{ "type": "Feature", "properties": { "name": "岩手 第3-004号 田老防潮堤", "prefecture": "岩手", "code": "岩手第3-004号", "category": 3, "Id": 261 }, "geometry": { "type": "Point", "coordinates": [ 141.9729525, 39.735422, 0.0 ] } },
{ "type": "Feature", "properties": { "name": "岩手 第3-005号 震災メモリアルパーク中の浜", "prefecture": "岩手", "code": "岩手第3-005号", "category": 3, "Id": 262 }, "geometry": { "type": "Point", "coordinates": [ 141.965258, 39.68661, 0.0 ] } },
{ "type": "Feature", "properties": { "name": "岩手 第3-006号 大船渡市立博物館", "prefecture": "岩手", "code": "岩手第3-006号", "category": 3, "Id": 263 }, "geometry": { "type": "Point", "coordinates": [ 141.7419525, 38.9889853, 0.0 ] } },
{ "type": "Feature", "properties": { "name": "岩手 第3-007号 地下水族科学館もぐらんぴあ", "prefecture": "岩手", "code": "岩手第3-007号", "category": 3, "Id": 264 }, "geometry": { "type": "Point", "coordinates": [ 141.815341499999988, 40.2213352, 0.0 ] } },
{ "type": "Feature", "properties": { "name": "岩手 第3-008号 3.11東日本大震災遠野市後方支援資料館", "prefecture": "岩手", "code": "岩手第3-008号", "category": 3, "Id": 265 }, "geometry": { "type": "Point", "coordinates": [ 141.5626479, 39.3299173, 0.0 ] } },
{ "type": "Feature", "properties": { "name": "岩手 第3-009号 釜石祈りのパーク", "prefecture": "岩手", "code": "岩手第3-009号", "category": 3, "Id": 266 }, "geometry": { "type": "Point", "coordinates": [ 141.8871514, 39.3272411, 0.0 ] } },
{ "type": "Feature", "properties": { "name": "岩手 第3-010号 いのちをつなぐ未来館", "prefecture": "岩手", "code": "岩手第3-010号", "category": 3, "Id": 267 }, "geometry": { "type": "Point", "coordinates": [ 141.8874615, 39.3271249, 0.0 ] } },
{ "type": "Feature", "properties": { "name": "岩手 第3-011号 大槌町文化交流センターおしゃっち", "prefecture": "岩手", "code": "岩手第3-011号", "category": 3, "Id": 268 }, "geometry": { "type": "Point", "coordinates": [ 141.9056866, 39.3594321, 0.0 ] } },
{ "type": "Feature", "properties": { "name": "岩手 第3-012号 震災遺構明戸海岸防潮堤", "prefecture": "岩手", "code": "岩手第3-012号", "category": 3, "Id": 269 }, "geometry": { "type": "Point", "coordinates": [ 141.943358499999988, 39.9459031, 0.0 ] } },
{ "type": "Feature", "properties": { "name": "岩手 第3-013号 島越ふれあい公園", "prefecture": "岩手", "code": "岩手第3-013号", "category": 3, "Id": 270 }, "geometry": { "type": "Point", "coordinates": [ 141.9400791, 39.9158821, 0.0 ] } },
{ "type": "Feature", "properties": { "name": "岩手 第3-014号 羅賀ふれあい公園", "prefecture": "岩手", "code": "岩手第3-014号", "category": 3, "Id": 271 }, "geometry": { "type": "Point", "coordinates": [ 141.9370994, 39.9373907, 0.0 ] } },
{ "type": "Feature", "properties": { "name": "岩手 第3-015号 東日本大震災津波伝承館（いわてTSUNAMIメモリアル）", "prefecture": "岩手", "code": "岩手第3-015号", "category": 3, "Id": 272 }, "geometry": { "type": "Point", "coordinates": [ 141.6275104, 39.007726, 0.0 ] } },
{ "type": "Feature", "properties": { "name": "岩手 第3-016号 高田松原津波復興祈念公園　国営追悼・祈念施設", "prefecture": "岩手", "code": "岩手第3-016号", "category": 3, "Id": 273 }, "geometry": { "type": "Point", "coordinates": [ 141.6264804, 39.0067922, 0.0 ] } },
{ "type": "Feature", "properties": { "name": "岩手 第3‐017号 野田村復興展示室", "prefecture": "岩手", "code": "岩手第3‐017号", "category": 3, "Id": 274 }, "geometry": { "type": "Point", "coordinates": [ 141.8182683, 40.1084569, 0.0 ] } },
{ "type": "Feature", "properties": { "name": "岩手 第3‐018号 山田町まちなか交流センター", "prefecture": "岩手", "code": "岩手第3‐018号", "category": 3, "Id": 275 }, "geometry": { "type": "Point", "coordinates": [ 141.9514503, 39.4645882, 0.0 ] } },
{ "type": "Feature", "properties": { "name": "岩手 第3-019号 大船渡市魚市場", "prefecture": "岩手", "code": "岩手第3-019号", "category": 3, "Id": 276 }, "geometry": { "type": "Point", "coordinates": [ 141.722771200000011, 39.0525152, 0.0 ] } },
{ "type": "Feature", "properties": { "name": "岩手 第3-020号 陸前高田市博物館", "prefecture": "岩手", "code": "岩手第3-020号", "category": 3, "Id": 277 }, "geometry": { "type": "Point", "coordinates": [ 141.628152300000011, 39.0155979, 0.0 ] } },
{ "type": "Feature", "properties": { "name": "岩手 第3-021号 道の駅高田松原タピック４５", "prefecture": "岩手", "code": "岩手第3-021号", "category": 3, "Id": 278 }, "geometry": { "type": "Point", "coordinates": [ 141.6293413, 39.0083473, 0.0 ] } },
{ "type": "Feature", "properties": { "name": "岩手 第3-022号 気仙中学校", "prefecture": "岩手", "code": "岩手第3-022号", "category": 3, "Id": 279 }, "geometry": { "type": "Point", "coordinates": [ 141.621112900000014, 39.0017887, 0.0 ] } },
{ "type": "Feature", "properties": { "name": "岩手 第3-023号 岩手県立図書館「I-ルーム」", "prefecture": "岩手", "code": "岩手第3-023号", "category": 3, "Id": 280 }, "geometry": { "type": "Point", "coordinates": [ 141.1328112, 39.7020004, 0.0 ] } },
{ "type": "Feature", "properties": { "name": "岩手 第3-024号 仕事と学び複合施設「イコウェルすみた」展示棟", "prefecture": "岩手", "code": "岩手第3-024号", "category": 3, "Id": 281 }, "geometry": { "type": "Point", "coordinates": [ 141.576106900000013, 39.1468347, 0.0 ] } },
{ "type": "Feature", "properties": { "name": "岩手 第3-025号 大船渡市防災学習館", "prefecture": "岩手", "code": "岩手第3-025号", "category": 3, "Id": 282 }, "geometry": { "type": "Point", "coordinates": [ 141.7379454, 39.0663422, 0.0 ] } },
{ "type": "Feature", "properties": { "name": "岩手 第3-026号 宮古市災害資料伝承館", "prefecture": "岩手", "code": "岩手第3-026号", "category": 3, "Id": 283 }, "geometry": { "type": "Point", "coordinates": [ 141.969268699999986, 39.7368044, 0.0 ] } },
{ "type": "Feature", "properties": { "name": "岩手 第3-027号 岩手県指定有形文化財　旧吉田家住宅主屋", "prefecture": "岩手", "code": "岩手第3-027号", "category": 3, "Id": 284 }, "geometry": { "type": "Point", "coordinates": [ 141.6166523, 39.0104857, 0.0 ] } },
{ "type": "Feature", "properties": { "name": "宮城 第2-001号 仙台合同庁舎B棟1階　 行政情報プラザ内　 東北地方整備局展示コーナー", "prefecture": "宮城", "code": "宮城第2-001号", "category": 2, "Id": 285 }, "geometry": { "type": "Point", "coordinates": [ 140.8727658, 38.267723, 0.0 ] } },
{ "type": "Feature", "properties": { "name": "宮城 第2-002号 震災伝承看板 「支援物資輸送を確保した航路啓開 （仙台塩釜港）」", "prefecture": "宮城", "code": "宮城第2-002号", "category": 2, "Id": 286 }, "geometry": { "type": "Point", "coordinates": [ 140.9979229, 38.2715513, 0.0 ] } },
{ "type": "Feature", "properties": { "name": "宮城 第2-003号 震災の伝承看板 （海岸公園井土地区）", "prefecture": "宮城", "code": "宮城第2-003号", "category": 2, "Id": 287 }, "geometry": { "type": "Point", "coordinates": [ 140.9673712, 38.2044885, 0.0 ] } },
{ "type": "Feature", "properties": { "name": "宮城 第2-004号 3.11東日本大震災伝承板 －長浜海岸防潮堤－", "prefecture": "宮城", "code": "宮城第2-004号", "category": 2, "Id": 288 }, "geometry": { "type": "Point", "coordinates": [ 141.3478675, 38.4142692, 0.0 ] } },
{ "type": "Feature", "properties": { "name": "宮城 第2-005号 石巻市北上地区 慰霊碑及びモニュメント", "prefecture": "宮城", "code": "宮城第2-005号", "category": 2, "Id": 289 }, "geometry": { "type": "Point", "coordinates": [ 141.4523222, 38.5763808, 0.0 ] } },
{ "type": "Feature", "properties": { "name": "宮城 第2-006号 早馬神社津波到達点　復興祈願碑", "prefecture": "宮城", "code": "宮城第2-006号", "category": 2, "Id": 290 }, "geometry": { "type": "Point", "coordinates": [ 141.6385759, 38.9037251, 0.0 ] } },
{ "type": "Feature", "properties": { "name": "宮城 第2-007号 岩井崎龍の松", "prefecture": "宮城", "code": "宮城第2-007号", "category": 2, "Id": 291 }, "geometry": { "type": "Point", "coordinates": [ 141.6021563, 38.8274141, 0.0 ] } },
{ "type": "Feature", "properties": { "name": "宮城 第2-008号 下増田神社", "prefecture": "宮城", "code": "宮城第2-008号", "category": 2, "Id": 292 }, "geometry": { "type": "Point", "coordinates": [ 140.9357138, 38.1369261, 0.0 ] } },
{ "type": "Feature", "properties": { "name": "宮城 第2-009号 多賀城市津波波高標識", "prefecture": "宮城", "code": "宮城第2-009号", "category": 2, "Id": 293 }, "geometry": { "type": "Point", "coordinates": [ 141.0032128, 38.2874658, 0.0 ] } },
{ "type": "Feature", "properties": { "name": "宮城 第2-010号 多賀城市 東日本大震災モニュメント", "prefecture": "宮城", "code": "宮城第2-010号", "category": 2, "Id": 294 }, "geometry": { "type": "Point", "coordinates": [ 141.006574199999989, 38.2915399, 0.0 ] } },
{ "type": "Feature", "properties": { "name": "宮城 第2-011号 いわぬまひつじ村", "prefecture": "宮城", "code": "宮城第2-011号", "category": 2, "Id": 295 }, "geometry": { "type": "Point", "coordinates": [ 140.9270069, 38.1018643, 0.0 ] } },
{ "type": "Feature", "properties": { "name": "宮城 第2-012号 震災伝承看板 「ポンプ車集中投入 仙台空港を早期“再生”」", "prefecture": "宮城", "code": "宮城第2-012号", "category": 2, "Id": 296 }, "geometry": { "type": "Point", "coordinates": [ 140.9351323, 38.1314887, 0.0 ] } },
{ "type": "Feature", "properties": { "name": "宮城 第2-013号 亘理町立　郷土資料館", "prefecture": "宮城", "code": "宮城第2-013号", "category": 2, "Id": 297 }, "geometry": { "type": "Point", "coordinates": [ 140.8613091, 38.0404991, 0.0 ] } },
{ "type": "Feature", "properties": { "name": "宮城 第2-014号 吉田浜防災公園　お地蔵様", "prefecture": "宮城", "code": "宮城第2-014号", "category": 2, "Id": 298 }, "geometry": { "type": "Point", "coordinates": [ 140.9084322, 38.0006594, 0.0 ] } },
{ "type": "Feature", "properties": { "name": "宮城 第2-015号 鳥の海公園　鎮魂の碑", "prefecture": "宮城", "code": "宮城第2-015号", "category": 2, "Id": 299 }, "geometry": { "type": "Point", "coordinates": [ 140.91575370000001, 38.0421401, 0.0 ] } },
{ "type": "Feature", "properties": { "name": "宮城 第2-016号 3.11東日本大震災伝承板 －菖蒲田海岸防潮堤", "prefecture": "宮城", "code": "宮城第2-016号", "category": 2, "Id": 300 }, "geometry": { "type": "Point", "coordinates": [ 141.0647338, 38.288853, 0.0 ] } },
{ "type": "Feature", "properties": { "name": "宮城 第2-017号 塩竈市東日本大震災モニュメント", "prefecture": "宮城", "code": "宮城第2-017号", "category": 2, "Id": 301 }, "geometry": { "type": "Point", "coordinates": [ 141.024721199999988, 38.3192912, 0.0 ] } },
{ "type": "Feature", "properties": { "name": "宮城 第2-018号 髙橋邸倉庫", "prefecture": "宮城", "code": "宮城第2-018号", "category": 2, "Id": 302 }, "geometry": { "type": "Point", "coordinates": [ 141.283377, 38.4874017, 0.0 ] } },
{ "type": "Feature", "properties": { "name": "宮城 第2-019号 石巻市牡鹿地区慰霊碑及びモニュメント", "prefecture": "宮城", "code": "宮城第2-019号", "category": 2, "Id": 303 }, "geometry": { "type": "Point", "coordinates": [ 141.4744049, 38.3332762, 0.0 ] } },
{ "type": "Feature", "properties": { "name": "宮城 第2-020号 石巻市雄勝地区慰霊碑及びモニュメント", "prefecture": "宮城", "code": "宮城第2-020号", "category": 2, "Id": 304 }, "geometry": { "type": "Point", "coordinates": [ 141.4743217, 38.5209945, 0.0 ] } },
{ "type": "Feature", "properties": { "name": "宮城 第2-021号 震災遺構　仙台市荒浜地区住宅基礎", "prefecture": "宮城", "code": "宮城第2-021号", "category": 2, "Id": 305 }, "geometry": { "type": "Point", "coordinates": [ 140.984608, 38.2189202, 0.0 ] } },
{ "type": "Feature", "properties": { "name": "宮城 第2-022号 震災伝承看板「仙台東部道路による津波被害低減を教訓とした総合的な津波対策」", "prefecture": "宮城", "code": "宮城第2-022号", "category": 2, "Id": 306 }, "geometry": { "type": "Point", "coordinates": [ 140.9677682, 38.2044716, 0.0 ] } },
{ "type": "Feature", "properties": { "name": "宮城 第2-023号 山元町東日本大震災慰霊碑 「大地の塔」", "prefecture": "宮城", "code": "宮城第2-023号", "category": 2, "Id": 307 }, "geometry": { "type": "Point", "coordinates": [ 140.9007049, 37.9672766, 0.0 ] } },
{ "type": "Feature", "properties": { "name": "宮城 第2-024号 東日本大震災杉ノ下遺族会　慰霊碑", "prefecture": "宮城", "code": "宮城第2-024号", "category": 2, "Id": 308 }, "geometry": { "type": "Point", "coordinates": [ 141.5869486, 38.8268418, 0.0 ] } },
{ "type": "Feature", "properties": { "name": "宮城 第2-025号 3.11東日本大震災伝承板-仙台塩釜港(仙台港区)-", "prefecture": "宮城", "code": "宮城第2-025号", "category": 2, "Id": 309 }, "geometry": { "type": "Point", "coordinates": [ 141.0198283, 38.2611028, 0.0 ] } },
{ "type": "Feature", "properties": { "name": "宮城 第2-026号 3.11東日本大震災伝承板-仙台塩釜港(松島港区)-", "prefecture": "宮城", "code": "宮城第2-026号", "category": 2, "Id": 310 }, "geometry": { "type": "Point", "coordinates": [ 141.0622195, 38.36942, 0.0 ] } },
{ "type": "Feature", "properties": { "name": "宮城 第2-027号 南三陸町震災復興記念公園", "prefecture": "宮城", "code": "宮城第2-027号", "category": 2, "Id": 311 }, "geometry": { "type": "Point", "coordinates": [ 141.4453564, 38.6776972, 0.0 ] } },
{ "type": "Feature", "properties": { "name": "宮城 第2-028号 宮城 第2‐028号 閖上中学校遺族会　慰霊碑", "prefecture": "宮城", "code": "宮城第2-028号", "category": 2, "Id": 312 }, "geometry": { "type": "Point", "coordinates": [ 140.940822, 38.1795395, 0.0 ] } },
{ "type": "Feature", "properties": { "name": "宮城 第2-029号 仙台空港", "prefecture": "宮城", "code": "宮城第2-029号", "category": 2, "Id": 313 }, "geometry": { "type": "Point", "coordinates": [ 140.9293998, 38.1381396, 0.0 ] } },
{ "type": "Feature", "properties": { "name": "宮城 第2-030号 スマートイノベーションギャラリー", "prefecture": "宮城", "code": "宮城第2-030号", "category": 2, "Id": 314 }, "geometry": { "type": "Point", "coordinates": [ 140.8704892, 38.2575346, 0.0 ] } },
{ "type": "Feature", "properties": { "name": "宮城 第2-031号 仙台市東六郷コミュニティ広場", "prefecture": "宮城", "code": "宮城第2-031号", "category": 2, "Id": 315 }, "geometry": { "type": "Point", "coordinates": [ 140.9499212, 38.1985329, 0.0 ] } },
{ "type": "Feature", "properties": { "name": "宮城 第2-032号 石巻市慰霊碑", "prefecture": "宮城", "code": "宮城第2-032号", "category": 2, "Id": 316 }, "geometry": { "type": "Point", "coordinates": [ 141.3038486, 38.4194077, 0.0 ] } },
{ "type": "Feature", "properties": { "name": "宮城 第2-033号 津波記憶石第28号", "prefecture": "宮城", "code": "宮城第2-033号", "category": 2, "Id": 317 }, "geometry": { "type": "Point", "coordinates": [ 141.4461355, 38.443439, 0.0 ] } },
{ "type": "Feature", "properties": { "name": "宮城 第2-034号 東日本大震災遺構（女川交番）", "prefecture": "宮城", "code": "宮城第2-034号", "category": 2, "Id": 318 }, "geometry": { "type": "Point", "coordinates": [ 141.4468823, 38.4450986, 0.0 ] } },
{ "type": "Feature", "properties": { "name": "宮城 第2₋035号 女川いのちの広場（東日本大震災伝承モニュメント）", "prefecture": "宮城", "code": "宮城第2₋035号", "category": 2, "Id": 319 }, "geometry": { "type": "Point", "coordinates": [ 141.446362599999986, 38.4413604, 0.0 ] } },
{ "type": "Feature", "properties": { "name": "宮城 第2-036号 はなはなプロジェクト　　浪分櫻第1号", "prefecture": "宮城", "code": "宮城第2-036号", "category": 2, "Id": 320 }, "geometry": { "type": "Point", "coordinates": [ 140.9484905, 38.2445896, 0.0 ] } },
{ "type": "Feature", "properties": { "name": "宮城 第2-037号 はなはなプロジェクト 浪分櫻第２号", "prefecture": "宮城", "code": "宮城第2-037号", "category": 2, "Id": 321 }, "geometry": { "type": "Point", "coordinates": [ 141.307833499999987, 38.4231595, 0.0 ] } },
{ "type": "Feature", "properties": { "name": "宮城 第2-038号 はなはなプロジェクト 浪分櫻第３号", "prefecture": "宮城", "code": "宮城第2-038号", "category": 2, "Id": 322 }, "geometry": { "type": "Point", "coordinates": [ 141.3689312, 38.4092902, 0.0 ] } },
{ "type": "Feature", "properties": { "name": "宮城 第2-039号 はなはなプロジェクト 浪分櫻第４号", "prefecture": "宮城", "code": "宮城第2-039号", "category": 2, "Id": 323 }, "geometry": { "type": "Point", "coordinates": [ 141.495620300000013, 38.5985733, 0.0 ] } },
{ "type": "Feature", "properties": { "name": "宮城 第2-040号 はなはなプロジェクト 浪分櫻第7号", "prefecture": "宮城", "code": "宮城第2-040号", "category": 2, "Id": 324 }, "geometry": { "type": "Point", "coordinates": [ 141.6070934, 38.8813212, 0.0 ] } },
{ "type": "Feature", "properties": { "name": "宮城 第2-041号 はなはなプロジェクト 浪分櫻第8号", "prefecture": "宮城", "code": "宮城第2-041号", "category": 2, "Id": 325 }, "geometry": { "type": "Point", "coordinates": [ 140.9041028, 38.1605789, 0.0 ] } },
{ "type": "Feature", "properties": { "name": "宮城 第2-042号 はなはなプロジェクト 浪分櫻第９号", "prefecture": "宮城", "code": "宮城第2-042号", "category": 2, "Id": 326 }, "geometry": { "type": "Point", "coordinates": [ 141.0056257, 38.2920665, 0.0 ] } },
{ "type": "Feature", "properties": { "name": "宮城 第2-043号 はなはなプロジェクト 浪分櫻第10号", "prefecture": "宮城", "code": "宮城第2-043号", "category": 2, "Id": 327 }, "geometry": { "type": "Point", "coordinates": [ 140.878778399999987, 38.1061768, 0.0 ] } },
{ "type": "Feature", "properties": { "name": "宮城 第2-044号 はなはなプロジェクト 浪分櫻第11号", "prefecture": "宮城", "code": "宮城第2-044号", "category": 2, "Id": 328 }, "geometry": { "type": "Point", "coordinates": [ 141.157956899999988, 38.3787268, 0.0 ] } },
{ "type": "Feature", "properties": { "name": "宮城 第2-045号 はなはなプロジェクト 浪分櫻第13号", "prefecture": "宮城", "code": "宮城第2-045号", "category": 2, "Id": 329 }, "geometry": { "type": "Point", "coordinates": [ 141.0667788, 38.3182281, 0.0 ] } },
{ "type": "Feature", "properties": { "name": "宮城 第2-046号 はなはなプロジェクト 浪分櫻第14号", "prefecture": "宮城", "code": "宮城第2-046号", "category": 2, "Id": 330 }, "geometry": { "type": "Point", "coordinates": [ 141.4435852, 38.4457441, 0.0 ] } },
{ "type": "Feature", "properties": { "name": "宮城 第2-047号 はなはなプロジェクト 安寧櫻第１号", "prefecture": "宮城", "code": "宮城第2-047号", "category": 2, "Id": 331 }, "geometry": { "type": "Point", "coordinates": [ 140.8567027, 38.2596513, 0.0 ] } },
{ "type": "Feature", "properties": { "name": "宮城 第2-048号 はなはなプロジェクト 安寧櫻第２号", "prefecture": "宮城", "code": "宮城第2-048号", "category": 2, "Id": 332 }, "geometry": { "type": "Point", "coordinates": [ 141.308433400000013, 38.4284958, 0.0 ] } },
{ "type": "Feature", "properties": { "name": "宮城 第2-049号 はなはなプロジェクト 安寧櫻第３号", "prefecture": "宮城", "code": "宮城第2-049号", "category": 2, "Id": 333 }, "geometry": { "type": "Point", "coordinates": [ 141.4741311, 38.3334944, 0.0 ] } },
{ "type": "Feature", "properties": { "name": "宮城 第2-50号 はなはなプロジェクト 安寧櫻第４号", "prefecture": "宮城", "code": "宮城第2-50号", "category": 2, "Id": 334 }, "geometry": { "type": "Point", "coordinates": [ 141.4742252, 38.5209708, 0.0 ] } },
{ "type": "Feature", "properties": { "name": "宮城 第2-051号 はなはなプロジェクト 安寧櫻第５号", "prefecture": "宮城", "code": "宮城第2-051号", "category": 2, "Id": 335 }, "geometry": { "type": "Point", "coordinates": [ 141.039704, 38.2904058, 0.0 ] } },
{ "type": "Feature", "properties": { "name": "宮城 第2-052号 はなはなプロジェクト 安寧櫻第７号", "prefecture": "宮城", "code": "宮城第2-052号", "category": 2, "Id": 336 }, "geometry": { "type": "Point", "coordinates": [ 141.0524641, 38.3666573, 0.0 ] } },
{ "type": "Feature", "properties": { "name": "宮城 第2-053号 はなはなプロジェクト 安寧櫻第8号", "prefecture": "宮城", "code": "宮城第2-053号", "category": 2, "Id": 337 }, "geometry": { "type": "Point", "coordinates": [ 141.0592566, 38.420315, 0.0 ] } },
{ "type": "Feature", "properties": { "name": "宮城 第2-054号 なかの伝承の丘", "prefecture": "宮城", "code": "宮城第2-054号", "category": 2, "Id": 338 }, "geometry": { "type": "Point", "coordinates": [ 141.0033856, 38.2567695, 0.0 ] } },
{ "type": "Feature", "properties": { "name": "宮城 第3-001号 東日本大震災　学習・資料室", "prefecture": "宮城", "code": "宮城第3-001号", "category": 3, "Id": 339 }, "geometry": { "type": "Point", "coordinates": [ 140.894618, 38.3111321, 0.0 ] } },
{ "type": "Feature", "properties": { "name": "宮城 第3-002号 せんだい3.11メモリアル交流館", "prefecture": "宮城", "code": "宮城第3-002号", "category": 3, "Id": 340 }, "geometry": { "type": "Point", "coordinates": [ 140.947971200000012, 38.2449511, 0.0 ] } },
{ "type": "Feature", "properties": { "name": "宮城 第3-003号 震災遺構仙台市立荒浜小学校", "prefecture": "宮城", "code": "宮城第3-003号", "category": 3, "Id": 341 }, "geometry": { "type": "Point", "coordinates": [ 140.9804647, 38.2224299, 0.0 ] } },
{ "type": "Feature", "properties": { "name": "宮城 第3-004号 石巻ニューゼ", "prefecture": "宮城", "code": "宮城第3-004号", "category": 3, "Id": 342 }, "geometry": { "type": "Point", "coordinates": [ 141.2921801, 38.4248636, 0.0 ] } },
{ "type": "Feature", "properties": { "name": "宮城 第3-005号 MEET門脇", "prefecture": "宮城", "code": "宮城第3-005号", "category": 3, "Id": 343 }, "geometry": { "type": "Point", "coordinates": [ 141.3045399, 38.4205132, 0.0 ] } },
{ "type": "Feature", "properties": { "name": "宮城 第3-006号 東日本大震災メモリアル南浜つなぐ館", "prefecture": "宮城", "code": "宮城第3-006号", "category": 3, "Id": 344 }, "geometry": { "type": "Point", "coordinates": [ 141.3023173, 38.4190221, 0.0 ] } },
{ "type": "Feature", "properties": { "name": "宮城 第3-007号 唐桑半島ビジターセンター・津波体験館", "prefecture": "宮城", "code": "宮城第3-007号", "category": 3, "Id": 345 }, "geometry": { "type": "Point", "coordinates": [ 141.6722863, 38.8625684, 0.0 ] } },
{ "type": "Feature", "properties": { "name": "宮城 第3-008号 リアス・アーク美術館", "prefecture": "宮城", "code": "宮城第3-008号", "category": 3, "Id": 346 }, "geometry": { "type": "Point", "coordinates": [ 141.55026620000001, 38.8812044, 0.0 ] } },
{ "type": "Feature", "properties": { "name": "宮城 第3-009号 気仙沼市東日本大震災遺構・伝承館", "prefecture": "宮城", "code": "宮城第3-009号", "category": 3, "Id": 347 }, "geometry": { "type": "Point", "coordinates": [ 141.5911438, 38.8311947, 0.0 ] } },
{ "type": "Feature", "properties": { "name": "宮城 第3-010号  津波復興祈念資料館　閖上の記憶", "prefecture": "宮城", "code": "宮城第3-010号", "category": 3, "Id": 348 }, "geometry": { "type": "Point", "coordinates": [ 140.9527067, 38.1688823, 0.0 ] } },
{ "type": "Feature", "properties": { "name": "宮城 第3-011号 岩沼市千年希望の丘交流センター", "prefecture": "宮城", "code": "宮城第3-011号", "category": 3, "Id": 349 }, "geometry": { "type": "Point", "coordinates": [ 140.93417740000001, 38.1307334, 0.0 ] } },
{ "type": "Feature", "properties": { "name": "宮城 第3-012号 東松島市東日本大震災復興祈念公園", "prefecture": "宮城", "code": "宮城第3-012号", "category": 3, "Id": 350 }, "geometry": { "type": "Point", "coordinates": [ 141.159706300000011, 38.374973, 0.0 ] } },
{ "type": "Feature", "properties": { "name": "宮城 第3-013号 高野会館", "prefecture": "宮城", "code": "宮城第3-013号", "category": 3, "Id": 351 }, "geometry": { "type": "Point", "coordinates": [ 141.4449098, 38.6756233, 0.0 ] } },
{ "type": "Feature", "properties": { "name": "宮城 第3-014号 名取市震災メモリアル公園", "prefecture": "宮城", "code": "宮城第3-014号", "category": 3, "Id": 352 }, "geometry": { "type": "Point", "coordinates": [ 140.9536296, 38.171737, 0.0 ] } },
{ "type": "Feature", "properties": { "name": "宮城 第3-015号 塩釜市津波防災センター", "prefecture": "宮城", "code": "宮城第3-015号", "category": 3, "Id": 353 }, "geometry": { "type": "Point", "coordinates": [ 141.0306946, 38.3193569, 0.0 ] } },
{ "type": "Feature", "properties": { "name": "宮城 第3-016号 石田沢防災センター", "prefecture": "宮城", "code": "宮城第3-016号", "category": 3, "Id": 354 }, "geometry": { "type": "Point", "coordinates": [ 141.0497393, 38.3704788, 0.0 ] } },
{ "type": "Feature", "properties": { "name": "宮城 第3-017号 NHK仙台拠点放送局", "prefecture": "宮城", "code": "宮城第3-017号", "category": 3, "Id": 355 }, "geometry": { "type": "Point", "coordinates": [ 140.874261100000012, 38.2661018, 0.0 ] } },
{ "type": "Feature", "properties": { "name": "宮城 第3-018号 山元町防災拠点・山下地域交流センター　（１階 防災情報コーナー）", "prefecture": "宮城", "code": "宮城第3-018号", "category": 3, "Id": 356 }, "geometry": { "type": "Point", "coordinates": [ 140.8896771, 37.9656868, 0.0 ] } },
{ "type": "Feature", "properties": { "name": "宮城 第3-019号 山元町震災遺構　中浜小学校", "prefecture": "宮城", "code": "宮城第3-019号", "category": 3, "Id": 357 }, "geometry": { "type": "Point", "coordinates": [ 140.918140200000011, 37.916591, 0.0 ] } },
{ "type": "Feature", "properties": { "name": "宮城 第3-020号 中浜小学校震災モニュメント「3月11日の日時計」", "prefecture": "宮城", "code": "宮城第3-020号", "category": 3, "Id": 358 }, "geometry": { "type": "Point", "coordinates": [ 140.9175488, 37.9163033, 0.0 ] } },
{ "type": "Feature", "properties": { "name": "宮城 第3-021号 名取市震災復興伝承館", "prefecture": "宮城", "code": "宮城第3-021号", "category": 3, "Id": 359 }, "geometry": { "type": "Point", "coordinates": [ 140.9538739, 38.1769124, 0.0 ] } },
{ "type": "Feature", "properties": { "name": "宮城 第3-022号 気仙沼市復興祈念公園", "prefecture": "宮城", "code": "宮城第3-022号", "category": 3, "Id": 360 }, "geometry": { "type": "Point", "coordinates": [ 141.578909900000014, 38.9096022, 0.0 ] } },
{ "type": "Feature", "properties": { "name": "宮城 第3-023号 石巻南浜津波復興祈念公園", "prefecture": "宮城", "code": "宮城第3-023号", "category": 3, "Id": 361 }, "geometry": { "type": "Point", "coordinates": [ 141.3036989, 38.4181962, 0.0 ] } },
{ "type": "Feature", "properties": { "name": "宮城 第3-024号 旧石巻市立大川小学校", "prefecture": "宮城", "code": "宮城第3-024号", "category": 3, "Id": 362 }, "geometry": { "type": "Point", "coordinates": [ 141.4267446, 38.5458678, 0.0 ] } },
{ "type": "Feature", "properties": { "name": "宮城 第3-025号 海の見える命の森 ", "prefecture": "宮城", "code": "宮城第3-025号", "category": 3, "Id": 363 }, "geometry": { "type": "Point", "coordinates": [ 141.4426681, 38.6635905, 0.0 ] } },
{ "type": "Feature", "properties": { "name": "宮城 第3-026号 東日本大震災慰霊碑", "prefecture": "宮城", "code": "宮城第3-026号", "category": 3, "Id": 364 }, "geometry": { "type": "Point", "coordinates": [ 141.2998666, 38.4202299, 0.0 ] } },
{ "type": "Feature", "properties": { "name": "宮城 第3-027号 石巻市震災遺構門脇小学校", "prefecture": "宮城", "code": "宮城第3-027号", "category": 3, "Id": 365 }, "geometry": { "type": "Point", "coordinates": [ 141.305358399999989, 38.4214922, 0.0 ] } },
{ "type": "Feature", "properties": { "name": "宮城 第3-028号 がんばろう！石巻看板", "prefecture": "宮城", "code": "宮城第3-028号", "category": 3, "Id": 366 }, "geometry": { "type": "Point", "coordinates": [ 141.3017144, 38.4188718, 0.0 ] } },
{ "type": "Feature", "properties": { "name": "宮城 第3-029号 南三陸町東日本大震災伝承館　南三陸３１１メモリアル", "prefecture": "宮城", "code": "宮城第3-029号", "category": 3, "Id": 367 }, "geometry": { "type": "Point", "coordinates": [ 141.447578, 38.6790041, 0.0 ] } },
{ "type": "Feature", "properties": { "name": "宮城 第3-030号 命のらせん階段（旧阿部家住宅）", "prefecture": "宮城", "code": "宮城第3-030号", "category": 3, "Id": 368 }, "geometry": { "type": "Point", "coordinates": [ 141.579027599999989, 38.8925978, 0.0 ] } },
{ "type": "Feature", "properties": { "name": "宮城 第3-031号　蒲生なかの郷愁館", "prefecture": "宮城", "code": "宮城第3-031号", "category": 3, "Id": 369 }, "geometry": { "type": "Point", "coordinates": [ 141.0049534, 38.256714, 0.0 ] } }
]
}
